,supermarket,department,nom_drive,nom_driveUrl,city,adresse,latitude,longitude,lien_drive
0,Intermarche,01,Hyper Amberieu en Bugey,Hyper_Amberieu_en_Bugey,01500 Amberieu en Bugey,Centre commercial de l'aviation-Les terreaux-01500 Amberieu en Bugey,45.971973,5.337993,https://www.intermarche.com/magasins/10498/amberieu-en-bugey-01500/infos-pratiques
1,Intermarche,01,Super Béon,Super_Beon,01350 Béon,2 Rue des Roselières-01350 Béon,45.847511,5.767197,https://www.intermarche.com/magasins/05667/beon-01350/infos-pratiques
2,Intermarche,01,Super Bourg en Bresse,Super_Bourg_en_Bresse,01000 Bourg en Bresse,56 rue du Stand-01000 Bourg en Bresse,46.19536,5.229369,https://www.intermarche.com/magasins/10525/bourg-en-bresse-01000/infos-pratiques
3,Intermarche,01,Super Briord,Super_Briord,01470 Briord,340 Route Du Pont-01470 Briord,45.787439,5.45304,https://www.intermarche.com/magasins/06877/briord-01470/infos-pratiques
4,Intermarche,01,Super Châtillon Sur Chalaronne,Super_Chatillon_Sur_Chalaronne,01400 Châtillon Sur Chalaronne,452 Avenue Jean Jaurès-01400 Châtillon Sur Chalaronne,46.115803,4.964898,https://www.intermarche.com/magasins/10242/chatillon-sur-chalaronne-01400/infos-pratiques
5,Intermarche,01,Super Chazey-Bons,Super_Chazey-Bons,01300 Chazey-Bons,Rn 504-ZI de Penaye-01300 Chazey-Bons,45.777461,5.689545,https://www.intermarche.com/magasins/10113/chazey-bons-01300/infos-pratiques
6,Intermarche,01,Contact Feillens,Contact_Feillens,01570 Feillens,45 rue de Bad Waldsee-01570 Feillens,46.334154,4.88772,https://www.intermarche.com/magasins/01590/feillens-01570/infos-pratiques
7,Intermarche,01,Super Gex,Super_Gex,01170 Gex,61 rue des transporteurs-Route de Divonne les Bains-01170 Gex,46.337855,6.075814,https://www.intermarche.com/magasins/10946/gex-01170/infos-pratiques
8,Intermarche,01,Super Jayat,Super_Jayat,01340 Jayat,Prairie de Cezille-01340 Jayat,46.356731,5.123991,https://www.intermarche.com/magasins/10123/jayat-01340/infos-pratiques
9,Intermarche,01,Super La Boisse,Super_La_Boisse,01120 La Boisse,168 route de Thil-01120 La Boisse,45.84685,5.047775,https://www.intermarche.com/magasins/10453/la-boisse-01120/infos-pratiques
10,Intermarche,01,Contact Lavancia-Epercy,Contact_Lavancia-Epercy,01590 Lavancia-Epercy,ZAC sous la Combe-01590 Lavancia-Epercy,46.325609,5.671821,https://www.intermarche.com/magasins/06066/lavancia-epercy-01590/infos-pratiques
11,Intermarche,01,Super Meximieux,Super_Meximieux,01800 Meximieux,Rue des Carronnières-Route de Chalamont-01800 Meximieux,45.914974,5.191716,https://www.intermarche.com/magasins/10184/meximieux-01800/infos-pratiques
12,Intermarche,01,Super Neuville-sur-Ain,Super_Neuville-sur-Ain,01160 Neuville-sur-Ain,547 rue du Docteur Hubert-L'Ile d'en haut sur le port-01160 Neuville-sur-Ain,46.074109,5.376391,https://www.intermarche.com/magasins/50332/neuville-sur-ain-01160/infos-pratiques
13,Intermarche,01,Super Oyonnax,Super_Oyonnax,01100 Oyonnax,74 rue Jules Michelet-01100 Oyonnax,46.262456,5.646694,https://www.intermarche.com/magasins/06909/oyonnax-01100/infos-pratiques
14,Intermarche,01,Super Peron,Super_Peron,01630 Peron,ZA du Pré Munny-01630 Peron,46.184377,5.929023,https://www.intermarche.com/magasins/05421/peron-01630/infos-pratiques
15,Intermarche,01,Contact Polliat,Contact_Polliat,01310 Polliat,21 allée de L'osier-01310 Polliat,46.247958,5.131541,https://www.intermarche.com/magasins/07480/polliat-01310/infos-pratiques
16,Intermarche,01,Super Port,Super_Port,01460 Port,Rue de l'Ancre-01460 Port,46.166175,5.570261,https://www.intermarche.com/magasins/10465/port-01460/infos-pratiques
17,Intermarche,01,Super Replonges,Super_Replonges,01750 Replonges,223 Route de Bourg-01750 Replonges,46.299111,4.880512,https://www.intermarche.com/magasins/10418/replonges-01750/infos-pratiques
18,Intermarche,01,Super Saint André De Corcy,Super_Saint_Andre_De_Corcy,01390 Saint André De Corcy,354 Rue De L'industrie Zi De Sure-01390 Saint André De Corcy,45.932834,4.959415,https://www.intermarche.com/magasins/08104/saint-andre-de-corcy-01390/infos-pratiques
19,Intermarche,01,Super Saint Etienne du Bois,Super_Saint_Etienne_du_Bois,01370 Saint Etienne du Bois,40 chemin de la bergaderie-01370 Saint Etienne du Bois,46.272516,5.284911,https://www.intermarche.com/magasins/07939/saint-etienne-du-bois-01370/infos-pratiques
20,Intermarche,01,Super Saint-Genis Pouilly,Super_Saint-Genis_Pouilly,01630 Saint-Genis Pouilly,148 rue châlets-ZAC de l'Allondon-01630 Saint-Genis Pouilly,46.263818,6.02937,https://www.intermarche.com/magasins/10212/saint-genis-pouilly-01630/infos-pratiques
21,Intermarche,01,Contact Saint-Rambert-en-Bugey,Contact_Saint-Rambert-en-Bugey,01230 Saint-Rambert-en-Bugey,132 avenue de l'Europe-Immeuble Le Mont Blanc-01230 Saint-Rambert-en-Bugey,45.944439,5.43508,https://www.intermarche.com/magasins/03586/saint-rambert-en-bugey-01230/infos-pratiques
22,Intermarche,01,Contact Saint-Trivier-de-Courtes,Contact_Saint-Trivier-de-Courtes,01560 Saint-Trivier-de-Courtes,Route de Pont de Vaux-01560 Saint-Trivier-de-Courtes,46.457252,5.065568,https://www.intermarche.com/magasins/07319/saint-trivier-de-courtes-01560/infos-pratiques
23,Intermarche,01,Contact Servas,Contact_Servas,01960 Servas,Route de Lyon-ZA du Val Roman-01960 Servas,46.128527,5.162362,https://www.intermarche.com/magasins/08096/servas-01960/infos-pratiques
24,Intermarche,01,Contact Vonnas,Contact_Vonnas,01540 Vonnas,Rue des Grands Varays-01540 Vonnas,46.212005,4.993764,https://www.intermarche.com/magasins/08260/vonnas-01540/infos-pratiques
25,Intermarche,03,Super Ainay le Château,Super_Ainay_le_Chateau,03360 Ainay le Château,Route de Moulins-03360 Ainay le Château,46.705542,2.695148,https://www.intermarche.com/magasins/50283/ainay-le-chateau-03360/infos-pratiques
26,Intermarche,03,Super Gannat,Super_Gannat,03800 Gannat,18 avenue des Portes Occitanes-03800 Gannat,46.078673,3.201353,https://www.intermarche.com/magasins/08548/gannat-03800/infos-pratiques
27,Intermarche,03,Contact Huriel,Contact_Huriel,03380 Huriel,54 rue des Calaubys-03380 Huriel,46.371858,2.468163,https://www.intermarche.com/magasins/50364/huriel-03380/infos-pratiques
28,Intermarche,03,Super Lapalisse,Super_Lapalisse,03120 Lapalisse,Avenue Jean Macé-03120 Lapalisse,46.257145,3.621916,https://www.intermarche.com/magasins/04704/lapalisse-03120/infos-pratiques
29,Intermarche,03,Super Le Mayet de Montagne,Super_Le_Mayet_de_Montagne,03250 Le Mayet de Montagne,29 Route des Ferrières-03250 Le Mayet de Montagne,46.068086,3.663226,https://www.intermarche.com/magasins/08147/le-mayet-de-montagne-03250/infos-pratiques
30,Intermarche,03,Super Malicorne,Super_Malicorne,03600 Malicorne,25 Route de la Brande-03600 Malicorne,46.300124,2.736497,https://www.intermarche.com/magasins/08829/malicorne-03600/infos-pratiques
31,Intermarche,03,Super Montlucon,Super_Montlucon,03100 Montlucon,Avenue Jules Guesde-Espace Jules Guesde-03100 Montlucon,46.34064,2.584856,https://www.intermarche.com/magasins/08349/montlucon-03100/infos-pratiques
32,Intermarche,03,Super Montluçon,Super_Montlucon,03100 Montluçon,Rue Pierre Semard-Centre commercial des fours à chaux-03100 Montluçon,46.331779,2.601572,https://www.intermarche.com/magasins/08635/montlucon-03100/infos-pratiques
33,Intermarche,03,Super Moulins,Super_Moulins,03000 Moulins,16 rue de Montilly-03000 Moulins,46.562769,3.319307,https://www.intermarche.com/magasins/01520/moulins-03000/infos-pratiques
34,Intermarche,03,Contact Neris les Bains,Contact_Neris_les_Bains,03310 Neris les Bains,Place du 8 Mai 1945-03310 Neris les Bains,46.288348,2.661583,https://www.intermarche.com/magasins/50310/neris-les-bains-03310/infos-pratiques
35,Intermarche,03,Contact Saint-Germain-des-Fosses,Contact_Saint-Germain-des-Fosses,03260 Saint-Germain-des-Fosses,Rue Pierre Semard-03260 Saint-Germain-des-Fosses,46.20455,3.432429,https://www.intermarche.com/magasins/01376/saint-germain-des-fosses-03260/infos-pratiques
36,Intermarche,03,Contact Souvigny,Contact_Souvigny,03210 Souvigny,Route De Cosne-03210 Souvigny,46.532917,3.18752,https://www.intermarche.com/magasins/50243/souvigny-03210/infos-pratiques
37,Intermarche,03,Super Vichy,Super_Vichy,03200 Vichy,4 Rue Maréchal Lyautey-03200 Vichy,46.120196,3.433163,https://www.intermarche.com/magasins/09233/vichy-03200/infos-pratiques
38,Intermarche,07,Super Annonay,Super_Annonay,07100 Annonay,"Les six chemins, rue du Docteur Duret-07100 Annonay",45.256915,4.671131,https://www.intermarche.com/magasins/06861/annonay-07100/infos-pratiques
39,Intermarche,07,Hyper Aubenas,Hyper_Aubenas,07200 Aubenas,15 Rue de l'Aguyane-ZAC du Moulon-07200 Aubenas,44.616037,4.406658,https://www.intermarche.com/magasins/01055/aubenas-07200/infos-pratiques
40,Intermarche,07,Super Bourg Saint-Andeol,Super_Bourg_Saint-Andeol,07700 Bourg Saint-Andeol,Avenue du Maréchal Leclerc-07700 Bourg Saint-Andeol,44.3804,4.641863,https://www.intermarche.com/magasins/01327/bourg-saint-andeol-07700/infos-pratiques
41,Intermarche,07,Super Lalevade D'ardeche,Super_Lalevade_D_ardeche,07380 Lalevade D'ardeche,100 Allée De Vals-07380 Lalevade D'ardeche,44.650292,4.323367,https://www.intermarche.com/magasins/10128/lalevade-d'ardeche-07380/infos-pratiques
42,Intermarche,07,Contact Lamastre,Contact_Lamastre,07270 Lamastre,Rue Ferdinand Herold-07270 Lamastre,44.984494,4.576582,https://www.intermarche.com/magasins/50339/lamastre-07270/infos-pratiques
43,Intermarche,07,Super La Voulte-sur-Rhone,Super_La_Voulte-sur-Rhone,07800 La Voulte-sur-Rhone,70 rue louis pasteur-ZI Jean Jaures-07800 La Voulte-sur-Rhone,44.807455,4.792905,https://www.intermarche.com/magasins/10198/la-voulte-sur-rhone-07800/infos-pratiques
44,Intermarche,07,Super Le Cheylard,Super_Le_Cheylard,07160 Le Cheylard,Allée des Vergers-ZI la Palisse-07160 Le Cheylard,44.91292,4.442328,https://www.intermarche.com/magasins/10146/le-cheylard-07160/infos-pratiques
45,Intermarche,07,Super Le Pouzin,Super_Le_Pouzin,07250 Le Pouzin,305 Rue René Cassin-Lieu Dit Quartier Mouillas-07250 Le Pouzin,44.745068,4.743932,https://www.intermarche.com/magasins/10219/le-pouzin-07250/infos-pratiques
46,Intermarche,07,Super Le Teil,Super_Le_Teil,07400 Le Teil,Chemin du Dépôt-Zac La Rotonde-07400 Le Teil,44.558017,4.689682,https://www.intermarche.com/magasins/10178/le-teil-07400/infos-pratiques
47,Intermarche,07,Super Privas,Super_Privas,07000 Privas,Boulevard de Paste-07000 Privas,44.726453,4.596437,https://www.intermarche.com/magasins/10264/privas-07000/infos-pratiques
48,Intermarche,07,Super Rosières,Super_Rosieres,07260 Rosières,135 Les Vernades-07260 Rosières,44.482445,4.26644,https://www.intermarche.com/magasins/10165/rosieres-07260/infos-pratiques
49,Intermarche,07,Super Saint-Jean-de-Muzols,Super_Saint-Jean-de-Muzols,07300 Saint-Jean-de-Muzols,6 Chemin de la Gare-07300 Saint-Jean-de-Muzols,45.076144,4.814582,https://www.intermarche.com/magasins/10335/saint-jean-de-muzols-07300/infos-pratiques
50,Intermarche,07,Contact Saint-Just-d'Ardèche,Contact_Saint-Just-d_Ardeche,07700 Saint-Just-d'Ardèche,505 Route de Bourg-Saint-Andéol-07700 Saint-Just-d'Ardèche,44.308952,4.613394,https://www.intermarche.com/magasins/06579/saint-just-d'ardeche-07700/infos-pratiques
51,Intermarche,07,Super Soyons,Super_Soyons,07130 Soyons,Z.C les Freydières-Pont des Lônes-07130 Soyons,44.917645,4.862062,https://www.intermarche.com/magasins/10409/soyons-07130/infos-pratiques
52,Intermarche,07,Super Vallon Pont D'arc,Super_Vallon_Pont_D_arc,07150 Vallon Pont D'arc,86 Route De Ruoms-07150 Vallon Pont D'arc,44.421823,4.3682,https://www.intermarche.com/magasins/10162/vallon-pont-d'arc-07150/infos-pratiques
53,Intermarche,07,Super Vernoux-en-Vivarais,Super_Vernoux-en-Vivarais,07240 Vernoux-en-Vivarais,12 Place du 13 Avril 1944-07240 Vernoux-en-Vivarais,44.897976,4.647718,https://www.intermarche.com/magasins/10107/vernoux-en-vivarais-07240/infos-pratiques
54,Intermarche,07,Super Villeneuve De Berg,Super_Villeneuve_De_Berg,07170 Villeneuve De Berg,692 Route Du Teil-07170 Villeneuve De Berg,44.57053,4.510682,https://www.intermarche.com/magasins/50196/villeneuve-de-berg-07170/infos-pratiques
55,Intermarche,15,Super Aurillac,Super_Aurillac,15000 Aurillac,66 rue de Firminy-15000 Aurillac,44.915812,2.432122,https://www.intermarche.com/magasins/11109/aurillac-15000/infos-pratiques
56,Intermarche,15,Super Aurillac,Super_Aurillac,15000 Aurillac,120 avenue du Général Leclerc-15000 Aurillac,44.909185,2.445669,https://www.intermarche.com/magasins/11124/aurillac-15000/infos-pratiques
57,Intermarche,15,Super Massiac,Super_Massiac,15500 Massiac,Pré Chambon-15500 Massiac,45.26209,3.198714,https://www.intermarche.com/magasins/50375/massiac-15500/infos-pratiques
58,Intermarche,15,Super Mauriac,Super_Mauriac,15200 Mauriac,Avenue de la Gare-15200 Mauriac,45.222035,2.341429,https://www.intermarche.com/magasins/11381/mauriac-15200/infos-pratiques
59,Intermarche,15,Super Murat,Super_Murat,15300 Murat,Chemin La Croix Jolie-15300 Murat,45.106046,2.862883,https://www.intermarche.com/magasins/11254/murat-15300/infos-pratiques
60,Intermarche,15,Contact Riom-ès-Montagnes,Contact_Riom-es-Montagnes,15400 Riom-ès-Montagnes,Rue des Frères Rodde-15400 Riom-ès-Montagnes,45.284399,2.653252,https://www.intermarche.com/magasins/03386/riom-es-montagnes-15400/infos-pratiques
61,Intermarche,15,Super Saint-Étienne-de-Maurs,Super_Saint-Etienne-de-Maurs,15600 Saint-Étienne-de-Maurs,8 Avenue d'Aurillac-15600 Saint-Étienne-de-Maurs,44.714652,2.202533,https://www.intermarche.com/magasins/11205/saint-etienne-de-maurs-15600/infos-pratiques
62,Intermarche,15,Super Saint-Flour,Super_Saint-Flour,15100 Saint-Flour,6 avenue Léon Bélard-15100 Saint-Flour,45.037967,3.088173,https://www.intermarche.com/magasins/11123/saint-flour-15100/infos-pratiques
63,Intermarche,15,Super Vic Sur Cere,Super_Vic_Sur_Cere,15800 Vic Sur Cere,Za De Comblat-15800 Vic Sur Cere,44.966255,2.606635,https://www.intermarche.com/magasins/03385/vic-sur-cere-15800/infos-pratiques
64,Intermarche,26,Contact Anneyron,Contact_Anneyron,26140 Anneyron,2 Route d'Épinouze-Route de Sorlin-26140 Anneyron,45.273497,4.89715,https://www.intermarche.com/magasins/50220/anneyron-26140/infos-pratiques
65,Intermarche,26,Super Bourg-Les-Valence,Super_Bourg-Les-Valence,26500 Bourg-Les-Valence,Place de l'Allet-26500 Bourg-Les-Valence,44.959082,4.907268,https://www.intermarche.com/magasins/10205/bourg-les-valence-26500/infos-pratiques
66,Intermarche,26,Hyper Crest,Hyper_Crest,26400 Crest,Quartier Mivoie-Cd 93-26400 Crest,44.722078,5.037382,https://www.intermarche.com/magasins/10434/crest-26400/infos-pratiques
67,Intermarche,26,Super Die,Super_Die,26150 Die,84 Avenue De La Résistance-26150 Die,44.760775,5.358388,https://www.intermarche.com/magasins/10153/die-26150/infos-pratiques
68,Intermarche,26,Super Etoile-sur-Rhône,Super_Etoile-sur-Rhone,26800 Etoile-sur-Rhône,280 rue Mont Briand-Centre commercial Les Basseaux-26800 Etoile-sur-Rhône,44.851663,4.870387,https://www.intermarche.com/magasins/10149/etoile-sur-rhone-26800/infos-pratiques
69,Intermarche,26,Contact Genissieux,Contact_Genissieux,26750 Genissieux,60 Impasse Elsa Triolet-26750 Genissieux,45.081013,5.086251,https://www.intermarche.com/magasins/07514/genissieux-26750/infos-pratiques
70,Intermarche,26,Super Grignan,Super_Grignan,26230 Grignan,900 route de Montélimar-ZA plaine de Bouveyri-26230 Grignan,44.420528,4.891247,https://www.intermarche.com/magasins/06547/grignan-26230/infos-pratiques
71,Intermarche,26,Contact Hauterives,Contact_Hauterives,26390 Hauterives,6 Route de Romans-26390 Hauterives,45.251696,5.026835,https://www.intermarche.com/magasins/50277/hauterives-26390/infos-pratiques
72,Intermarche,26,Hyper Loriol-sur-Drôme,Hyper_Loriol-sur-Drome,26270 Loriol-sur-Drôme,Parc des Crozes-26270 Loriol-sur-Drôme,44.758672,4.837053,https://www.intermarche.com/magasins/10273/loriol-sur-drome-26270/infos-pratiques
73,Intermarche,26,Super Montélier,Super_Montelier,26120 Montélier,1 À 5 Allee Venturi-Za Les Petits Champs-26120 Montélier,44.929025,5.021685,https://www.intermarche.com/magasins/10291/montelier-26120/infos-pratiques
74,Intermarche,26,Super Montelimar,Super_Montelimar,26200 Montelimar,25 rue Paul Loubet-26200 Montelimar,44.56424,4.747643,https://www.intermarche.com/magasins/10233/montelimar-26200/infos-pratiques
75,Intermarche,26,Super Nyons,Super_Nyons,26110 Nyons,31 Avenue de Venterol-26110 Nyons,44.359755,5.129781,https://www.intermarche.com/magasins/10155/nyons-26110/infos-pratiques
76,Intermarche,26,Super Saint Jean En Royans,Super_Saint_Jean_En_Royans,26190 Saint Jean En Royans,Za De La Roue-26190 Saint Jean En Royans,45.026397,5.288951,https://www.intermarche.com/magasins/10433/saint-jean-en-royans-26190/infos-pratiques
77,Intermarche,26,Super Saint-Paul-Trois-Châteaux,Super_Saint-Paul-Trois-Chateaux,26130 Saint-Paul-Trois-Châteaux,Chemin des Gonsards-Rond point de l'Europe-26130 Saint-Paul-Trois-Châteaux,44.345604,4.754763,https://www.intermarche.com/magasins/10403/saint-paul-trois-chateaux-26130/infos-pratiques
78,Intermarche,26,Super Saint Vallier,Super_Saint_Vallier,26240 Saint Vallier,1 Chemin De La Brassière-Zone Interval-26240 Saint Vallier,45.171115,4.813512,https://www.intermarche.com/magasins/10570/saint-vallier-26240/infos-pratiques
79,Intermarche,26,Hyper Tain-l'Hermitage,Hyper_Tain-l_Hermitage,26600 Tain-l'Hermitage,450 Avenue des Lots-Za Les Lots-26600 Tain-l'Hermitage,45.068732,4.865495,https://www.intermarche.com/magasins/10235/tain-l'hermitage-26600/infos-pratiques
80,Intermarche,26,Contact Tulette,Contact_Tulette,26790 Tulette,Lieu dit le Peyron-Route d'orange-26790 Tulette,44.279375,4.920598,https://www.intermarche.com/magasins/07676/tulette-26790/infos-pratiques
81,Intermarche,26,Super Valence,Super_Valence,26000 Valence,362 rue Faventines-26000 Valence,44.912254,4.914538,https://www.intermarche.com/magasins/10101/valence-26000/infos-pratiques
82,Intermarche,43,Super Chadrac-Le-Puy,Super_Chadrac-Le-Puy,43770 Chadrac-Le-Puy,17 avenue des Champs Elysées-43770 Chadrac-Le-Puy,45.053901,3.89889,https://www.intermarche.com/magasins/10192/chadrac-le-puy-43770/infos-pratiques
83,Intermarche,43,Super Cohade,Super_Cohade,43100 Cohade,Flageac-43100 Cohade,45.321996,3.371538,https://www.intermarche.com/magasins/06867/cohade-43100/infos-pratiques
84,Intermarche,43,Super Le Chambon-sur-Lignon,Super_Le_Chambon-sur-Lignon,43400 Le Chambon-sur-Lignon,Route de Saint-Agrève-Lieu-dit Le Pont de la Dame-43400 Le Chambon-sur-Lignon,45.05619,4.31473,https://www.intermarche.com/magasins/10133/le-chambon-sur-lignon-43400/infos-pratiques
85,Intermarche,43,Contact Le Monastier-sur-Gazeille,Contact_Le_Monastier-sur-Gazeille,43150 Le Monastier-sur-Gazeille,Avenue du Puy-43150 Le Monastier-sur-Gazeille,44.948733,3.986846,https://www.intermarche.com/magasins/50231/le-monastier-sur-gazeille-43150/infos-pratiques
86,Intermarche,43,Super Monistrol-sur-Loire,Super_Monistrol-sur-Loire,43120 Monistrol-sur-Loire,Par Route Nationale 88 suivre bas en basset-41E rue des Moletons-43120 Monistrol-sur-Loire,45.284519,4.158937,https://www.intermarche.com/magasins/10437/monistrol-sur-loire-43120/infos-pratiques
87,Intermarche,43,Contact Paulhaguet,Contact_Paulhaguet,43230 Paulhaguet,11 avenue de la Gare-43230 Paulhaguet,45.208859,3.507329,https://www.intermarche.com/magasins/05265/paulhaguet-43230/infos-pratiques
88,Intermarche,43,Contact Retournac,Contact_Retournac,43130 Retournac,Rue Jean Baptiste Ribeyron-43130 Retournac,45.211008,4.029656,https://www.intermarche.com/magasins/05355/retournac-43130/infos-pratiques
89,Intermarche,43,Super Sainte-Sigolène,Super_Sainte-Sigolene,43600 Sainte-Sigolène,Zone commerciale de Chanibeau-43600 Sainte-Sigolène,45.249347,4.216164,https://www.intermarche.com/magasins/10139/sainte-sigolene-43600/infos-pratiques
90,Intermarche,43,Contact Saint-Julien-Chapteuil,Contact_Saint-Julien-Chapteuil,43260 Saint-Julien-Chapteuil,Route du Puy-En-Velay-43260 Saint-Julien-Chapteuil,45.036601,4.056192,https://www.intermarche.com/magasins/06765/saint-julien-chapteuil-43260/infos-pratiques
91,Intermarche,43,Super Saint-Paulien,Super_Saint-Paulien,43350 Saint-Paulien,Rue du Docteur Chabanet-43350 Saint-Paulien,45.132172,3.814563,https://www.intermarche.com/magasins/10164/saint-paulien-43350/infos-pratiques
92,Intermarche,43,Hyper Vals-près-le-Puy,Hyper_Vals-pres-le-Puy,43750 Vals-près-le-Puy,Avenue Jeanne d'Arc-43750 Vals-près-le-Puy,45.027186,3.879794,https://www.intermarche.com/magasins/10735/vals-pres-le-puy-43750/infos-pratiques
93,Intermarche,43,Contact Vorey,Contact_Vorey,43800 Vorey,Avenue Philibert Besson-Route Du Puy-43800 Vorey,45.181447,3.915381,https://www.intermarche.com/magasins/01536/vorey-43800/infos-pratiques
94,Intermarche,43,Super Yssingeaux,Super_Yssingeaux,43200 Yssingeaux,195 Route de Retournac-43200 Yssingeaux,45.143967,4.115831,https://www.intermarche.com/magasins/10399/yssingeaux-43200/infos-pratiques
95,Intermarche,74,Super Allinges,Super_Allinges,74200 Allinges,157 Route des Blaves-74200 Allinges,46.33538,6.48265,https://www.intermarche.com/magasins/06682/allinges-74200/infos-pratiques
96,Intermarche,74,Super Amancy,Super_Amancy,74800 Amancy,65 impasse des Champs-74800 Amancy,46.071787,6.32495,https://www.intermarche.com/magasins/10900/amancy-74800/infos-pratiques
97,Intermarche,74,Super Annecy,Super_Annecy,74000 Annecy,4 rue du Travail-74000 Annecy,45.894922,6.119964,https://www.intermarche.com/magasins/10875/annecy-74000/infos-pratiques
98,Intermarche,74,Contact Bonneville,Contact_Bonneville,74130 Bonneville,516 Avenue de Geneve-74130 Bonneville,46.083398,6.403003,https://www.intermarche.com/magasins/08170/bonneville-74130/infos-pratiques
99,Intermarche,74,Super Domancy,Super_Domancy,74700 Domancy,119 Zone Commerciale-Boulevard de la Pallud-74700 Domancy,45.904618,6.681575,https://www.intermarche.com/magasins/10140/domancy-74700/infos-pratiques
100,Intermarche,74,Super Douvaine,Super_Douvaine,74140 Douvaine,Route des Esserts-74140 Douvaine,46.300026,6.310552,https://www.intermarche.com/magasins/09563/douvaine-74140/infos-pratiques
101,Intermarche,74,Super Faverges,Super_Faverges,74210 Faverges,Rn 508-ZA les Boucheroz-74210 Faverges,45.75408,6.277099,https://www.intermarche.com/magasins/10604/faverges-74210/infos-pratiques
102,Intermarche,74,Super Gaillard,Super_Gaillard,74240 Gaillard,5 Rue René Cassin-ZAC de la Chatelaine-74240 Gaillard,46.180828,6.215948,https://www.intermarche.com/magasins/10167/gaillard-74240/infos-pratiques
103,Intermarche,74,Super La Chapelle-d'Abondance,Super_La_Chapelle-d_Abondance,74360 La Chapelle-d'Abondance,94 Chemin des Vorges-74360 La Chapelle-d'Abondance,46.277652,6.822799,https://www.intermarche.com/magasins/01049/la-chapelle-d'abondance-74360/infos-pratiques
104,Intermarche,74,Super Les Villards-sur-Thones,Super_Les_Villards-sur-Thones,74230 Les Villards-sur-Thones,Lieu-dit Les Perrils-74230 Les Villards-sur-Thones,45.908682,6.365064,https://www.intermarche.com/magasins/10169/les-villards-sur-thones-74230/infos-pratiques
105,Intermarche,74,Super Lugrin,Super_Lugrin,74500 Lugrin,ZAC des Crêts-Avenue Du Stade-74500 Lugrin,46.344313,6.584737,https://www.intermarche.com/magasins/10181/lugrin-74500/infos-pratiques
106,Intermarche,74,Super Praz sur Arly,Super_Praz_sur_Arly,74120 Praz sur Arly,Route de Megève-912 route de megeve-74120 Praz sur Arly,45.840206,6.580853,https://www.intermarche.com/magasins/05970/praz-sur-arly-74120/infos-pratiques
107,Intermarche,74,Super Rumilly,Super_Rumilly,74150 Rumilly,Avenue Franklin Roosevelt-74150 Rumilly,45.871346,5.936903,https://www.intermarche.com/magasins/10514/rumilly-74150/infos-pratiques
108,Intermarche,74,Super Saint-Julien en Genevois,Super_Saint-Julien_en_Genevois,74160 Saint-Julien en Genevois,Route des Vignes-74160 Saint-Julien en Genevois,46.138737,6.069253,https://www.intermarche.com/magasins/10121/saint-julien-en-genevois-74160/infos-pratiques
109,Intermarche,74,Super St Jeoire,Super_St_Jeoire,74490 St Jeoire,123 Route De Montrenaz-74490 St Jeoire,46.134744,6.461367,https://www.intermarche.com/magasins/10211/st-jeoire-74490/infos-pratiques
110,Intermarche,74,Super Thonon-Les-Bains,Super_Thonon-Les-Bains,74200 Thonon-Les-Bains,7 rue Amédée de Foras-74200 Thonon-Les-Bains,46.380149,6.49555,https://www.intermarche.com/magasins/05952/thonon-les-bains-74200/infos-pratiques
111,Intermarche,74,Super Thyez,Super_Thyez,74300 Thyez,2525 avenue des vallées-Lieu-dit Les Bossons-74300 Thyez,46.08636,6.523462,https://www.intermarche.com/magasins/10908/thyez-74300/infos-pratiques
112,Intermarche,74,Super Vétraz-Monthoux,Super_Vetraz-Monthoux,74100 Vétraz-Monthoux,Chemin des Érables-74100 Vétraz-Monthoux,46.184607,6.275607,https://www.intermarche.com/magasins/03964/vetraz-monthoux-74100/infos-pratiques
113,Intermarche,74,Super Vulbens,Super_Vulbens,74520 Vulbens,50 chemin des Grands Chavannoux-Zac-74520 Vulbens,46.105115,5.958527,https://www.intermarche.com/magasins/10217/vulbens-74520/infos-pratiques
114,Intermarche,38,Super Aoste,Super_Aoste,38490 Aoste,420 route de Belley-38490 Aoste,45.592262,5.608574,https://www.intermarche.com/magasins/50355/aoste-38490/infos-pratiques
115,Intermarche,38,Super Apprieu,Super_Apprieu,38140 Apprieu,305 Rue du Grand Champ-Parc d'activités Bièvre Dauphine-38140 Apprieu,45.398992,5.467823,https://www.intermarche.com/magasins/07027/apprieu-38140/infos-pratiques
116,Intermarche,38,Super Bresson,Super_Bresson,38320 Bresson,240 avenue de la République-ZI les Condamines-38320 Bresson,45.14134,5.736011,https://www.intermarche.com/magasins/10207/bresson-38320/infos-pratiques
117,Intermarche,38,Super Chanas,Super_Chanas,38150 Chanas,Parc du Soleil-Rn 7-38150 Chanas,45.3248,4.809104,https://www.intermarche.com/magasins/10591/chanas-38150/infos-pratiques
118,Intermarche,38,Contact Chapareillan,Contact_Chapareillan,38530 Chapareillan,Route du Grésivaudan-Chemin des noyers-38530 Chapareillan,45.470206,5.991422,https://www.intermarche.com/magasins/07867/chapareillan-38530/infos-pratiques
119,Intermarche,38,Super Charancieu,Super_Charancieu,38490 Charancieu,130 Route Nationale 75-Lieu dit Les Eplagnes-38490 Charancieu,45.529968,5.589323,https://www.intermarche.com/magasins/01334/charancieu-38490/infos-pratiques
120,Intermarche,38,Hyper Chasse-sur-Rhône,Hyper_Chasse-sur-Rhone,38670 Chasse-sur-Rhône,1515 Avenue Frédéric Mistral-Centre Commercial Chasse Sud-38670 Chasse-sur-Rhône,45.575112,4.80992,https://www.intermarche.com/magasins/10688/chasse-sur-rhone-38670/infos-pratiques
121,Intermarche,38,Super Domarin,Super_Domarin,38300 Domarin,178 route de Lyon-38300 Domarin,45.590495,5.24244,https://www.intermarche.com/magasins/03874/domarin-38300/infos-pratiques
122,Intermarche,38,Super Domene,Super_Domene,38420 Domene,Avenue Aristide Bergès-ZAC des Chenevières-38420 Domene,45.207065,5.827521,https://www.intermarche.com/magasins/10637/domene-38420/infos-pratiques
123,Intermarche,38,Super Grenoble,Super_Grenoble,38000 Grenoble,15 route de Lyon-38000 Grenoble,45.19529,5.719048,https://www.intermarche.com/magasins/10820/grenoble-38000/infos-pratiques
124,Intermarche,38,Super Grenoble,Super_Grenoble,38100 Grenoble,13 boulevard du Maréchal Foch-38100 Grenoble,45.181125,5.725375,https://www.intermarche.com/magasins/10603/grenoble-38100/infos-pratiques
125,Intermarche,38,Super Heyrieux,Super_Heyrieux,38540 Heyrieux,ZAC Les Brosses-38540 Heyrieux,45.639158,5.043087,https://www.intermarche.com/magasins/10143/heyrieux-38540/infos-pratiques
126,Intermarche,38,Super La Côte Saint-André,Super_La_Cote_Saint-Andre,38260 La Côte Saint-André,36 avenue Aristide Briand-38260 La Côte Saint-André,45.393091,5.252888,https://www.intermarche.com/magasins/01601/la-cote-saint-andre-38260/infos-pratiques
127,Intermarche,38,Super La Mure,Super_La_Mure,38350 La Mure,Centre Commercial La Matheysine-38350 La Mure,44.931308,5.782747,https://www.intermarche.com/magasins/10108/la-mure-38350/infos-pratiques
128,Intermarche,38,Hyper Le Peage de Roussillon,Hyper_Le_Peage_de_Roussillon,38550 Le Peage de Roussillon,Rue Bellefontaine-38550 Le Peage de Roussillon,45.377526,4.79624,https://www.intermarche.com/magasins/10464/le-peage-de-roussillon-38550/infos-pratiques
129,Intermarche,38,Super Les Avenières Veyrins-Thuellin,Super_Les_Avenieres_Veyrins-Thuellin,38630 Les Avenières Veyrins-Thuellin,74 Route de Jalerieu-38630 Les Avenières Veyrins-Thuellin,45.629127,5.577183,https://www.intermarche.com/magasins/08961/les-avenieres-veyrins-thuellin-38630/infos-pratiques
130,Intermarche,38,Express Les Deux Alpes,Express_Les_Deux_Alpes,38860 Les Deux Alpes,23 Avenue de la Muzelle (venosc)-38860 Les Deux Alpes,45.016895,6.124679,https://www.intermarche.com/magasins/10722/les-deux-alpes-38860/infos-pratiques
131,Intermarche,38,Super Le Touvet,Super_Le_Touvet,38660 Le Touvet,Aux roty-38660 Le Touvet,45.35878,5.956779,https://www.intermarche.com/magasins/01250/le-touvet-38660/infos-pratiques
132,Intermarche,38,Contact Moirans,Contact_Moirans,38430 Moirans,211 Rue Vincent Martin-38430 Moirans,45.324923,5.582635,https://www.intermarche.com/magasins/09728/moirans-38430/infos-pratiques
133,Intermarche,38,Contact Monestier De Clermont,Contact_Monestier_De_Clermont,38650 Monestier De Clermont,Za Les Carlaires Sud-38650 Monestier De Clermont,44.929542,5.638937,https://www.intermarche.com/magasins/06254/monestier-de-clermont-38650/infos-pratiques
134,Intermarche,38,Super Passins,Super_Passins,38510 Passins,Rue Centrale De Lantey-Zone Industrielle Le Lanthey-38510 Passins,45.683255,5.451053,https://www.intermarche.com/magasins/10654/passins-38510/infos-pratiques
135,Intermarche,38,Super Saint Jean De Bournay,Super_Saint_Jean_De_Bournay,38440 Saint Jean De Bournay,300 Boulevard Nelson Mandela-38440 Saint Jean De Bournay,45.498469,5.137324,https://www.intermarche.com/magasins/10129/saint-jean-de-bournay-38440/infos-pratiques
136,Intermarche,38,Super Saint-Jean de Soudain,Super_Saint-Jean_de_Soudain,38110 Saint-Jean de Soudain,136 route de la Bourbre-ZI Les marais-38110 Saint-Jean de Soudain,45.56688,5.430717,https://www.intermarche.com/magasins/10103/saint-jean-de-soudain-38110/infos-pratiques
137,Intermarche,38,Super Saint Laurent Du Pont,Super_Saint_Laurent_Du_Pont,38380 Saint Laurent Du Pont,293 Avenue Victor Hugo-38380 Saint Laurent Du Pont,45.387103,5.730014,https://www.intermarche.com/magasins/01274/saint-laurent-du-pont-38380/infos-pratiques
138,Intermarche,38,Super Saint-Sauveur,Super_Saint-Sauveur,38160 Saint-Sauveur,28 route de Grenoble-La Maladière - RN 92-38160 Saint-Sauveur,45.156937,5.335577,https://www.intermarche.com/magasins/10263/saint-sauveur-38160/infos-pratiques
139,Intermarche,38,Super Saint-Siméon de Bressieux,Super_Saint-Simeon_de_Bressieux,38870 Saint-Siméon de Bressieux,660 Route de la Côte-Le Bizolle-38870 Saint-Siméon de Bressieux,45.335081,5.266337,https://www.intermarche.com/magasins/10454/saint-simeon-de-bressieux-38870/infos-pratiques
140,Intermarche,38,Super Seyssins,Super_Seyssins,38180 Seyssins,112 rue de la Liberté-38180 Seyssins,45.160099,5.696205,https://www.intermarche.com/magasins/10814/seyssins-38180/infos-pratiques
141,Intermarche,38,Super Tullins,Super_Tullins,38210 Tullins,Avenue de la Contamine-38210 Tullins,45.297902,5.486469,https://www.intermarche.com/magasins/10222/tullins-38210/infos-pratiques
142,Intermarche,38,Super Varces Allières Et Risset,Super_Varces_Allieres_Et_Risset,38760 Varces Allières Et Risset,3 Rue De L'industrie-Zac Champs Saint Ange-38760 Varces Allières Et Risset,45.09792,5.681831,https://www.intermarche.com/magasins/10755/varces-allieres-et-risset-38760/infos-pratiques
143,Intermarche,38,Super Vienne,Super_Vienne,38200 Vienne,ZA de la Gère-38200 Vienne,45.518136,4.919783,https://www.intermarche.com/magasins/10112/vienne-38200/infos-pratiques
144,Intermarche,38,Express Vienne,Express_Vienne,38200 Vienne,Place Camille Jouffray-38200 Vienne,45.521088,4.871708,https://www.intermarche.com/magasins/01088/vienne-38200/infos-pratiques
145,Intermarche,38,Super Villard de Lans,Super_Villard_de_Lans,38250 Villard de Lans,Quartier des Geymonds-38250 Villard de Lans,45.088414,5.55881,https://www.intermarche.com/magasins/10185/villard-de-lans-38250/infos-pratiques
146,Intermarche,38,Super Villette-D'anthon,Super_Villette-D_anthon,38280 Villette-D'anthon,Rue des diamants-CD 55 ZC Bois Bernet-38280 Villette-D'anthon,45.791868,5.130695,https://www.intermarche.com/magasins/06272/villette-d'anthon-38280/infos-pratiques
147,Intermarche,38,Contact Villette-de-Vienne,Contact_Villette-de-Vienne,38200 Villette-de-Vienne,Chemin de Maupas-Lieu-dit Vernette-38200 Villette-de-Vienne,45.581163,4.915129,https://www.intermarche.com/magasins/05767/villette-de-vienne-38200/infos-pratiques
148,Intermarche,38,Super Vizille,Super_Vizille,38220 Vizille,315 rue Ambroise Croizat-ZI du Cornage-38220 Vizille,45.084249,5.762448,https://www.intermarche.com/magasins/10865/vizille-38220/infos-pratiques
149,Intermarche,42,Super Boën Sur Lignon,Super_Boen_Sur_Lignon,42130 Boën Sur Lignon,562 Chemin De Giraud-Zone Artisanale Parc Giraud-42130 Boën Sur Lignon,45.735107,4.010139,https://www.intermarche.com/magasins/03480/boen-sur-lignon-42130/infos-pratiques
150,Intermarche,42,Super Chamboeuf,Super_Chamboeuf,42330 Chamboeuf,ZA la Grande route de Rivas-42330 Chamboeuf,45.583905,4.303679,https://www.intermarche.com/magasins/06882/chamboeuf-42330/infos-pratiques
151,Intermarche,42,Super Chazelles-Sur-Lyon,Super_Chazelles-Sur-Lyon,42140 Chazelles-Sur-Lyon,25 rue Lamartine-42140 Chazelles-Sur-Lyon,45.634386,4.381321,https://www.intermarche.com/magasins/02529/chazelles-sur-lyon-42140/infos-pratiques
152,Intermarche,42,Super Civens,Super_Civens,42110 Civens,Rn 82-Les vernes-42110 Civens,45.753541,4.219158,https://www.intermarche.com/magasins/10152/civens-42110/infos-pratiques
153,Intermarche,42,Contact Commelle-Vernay,Contact_Commelle-Vernay,42120 Commelle-Vernay,46 Allée du Parc-42120 Commelle-Vernay,45.999382,4.060817,https://www.intermarche.com/magasins/05507/commelle-vernay-42120/infos-pratiques
154,Intermarche,42,Hyper Firminy,Hyper_Firminy,42700 Firminy,Rue De Chazeau-Zac Des Bruneaux-42700 Firminy,45.379802,4.276192,https://www.intermarche.com/magasins/10715/firminy-42700/infos-pratiques
155,Intermarche,42,Super Lentigny,Super_Lentigny,42155 Lentigny,Rue de la Bruyère-42155 Lentigny,45.992364,3.984278,https://www.intermarche.com/magasins/05850/lentigny-42155/infos-pratiques
156,Intermarche,42,Super L'horme,Super_L_horme,42152 L'horme,38 Avenue Berthelot-Rue Du Plat De Gier-42152 L'horme,45.492119,4.557524,https://www.intermarche.com/magasins/10526/l'horme-42152/infos-pratiques
157,Intermarche,42,Super Montbrison,Super_Montbrison,42600 Montbrison,10 Allée Jean 1er du Forez-Za Des Granges-42600 Montbrison,45.59573,4.082751,https://www.intermarche.com/magasins/10115/montbrison-42600/infos-pratiques
158,Intermarche,42,Super Noirétable,Super_Noiretable,42440 Noirétable,12 Rue de l'Aubépine-42440 Noirétable,45.822353,3.764576,https://www.intermarche.com/magasins/10132/noiretable-42440/infos-pratiques
159,Intermarche,42,Super Riorges,Super_Riorges,42153 Riorges,480 Avenue Charles de Gaulle-Zone commerciale du Pontet-42153 Riorges,46.054426,4.06435,https://www.intermarche.com/magasins/02768/riorges-42153/infos-pratiques
160,Intermarche,42,Super Rive de Gier,Super_Rive_de_Gier,42800 Rive de Gier,Avenue du Maréchal Juin-42800 Rive de Gier,45.532943,4.628441,https://www.intermarche.com/magasins/10687/rive-de-gier-42800/infos-pratiques
161,Intermarche,42,Super Roche la Molière,Super_Roche_la_Moliere,42230 Roche la Molière,3 boulevard Pierre et Marie Curie-42230 Roche la Molière,45.42257,4.315293,https://www.intermarche.com/magasins/10473/roche-la-moliere-42230/infos-pratiques
162,Intermarche,42,Express Saint Chamond,Express_Saint_Chamond,42400 Saint Chamond,8 rue Pierre Curie-42400 Saint Chamond,45.476175,4.511087,https://www.intermarche.com/magasins/02005/saint-chamond-42400/infos-pratiques
163,Intermarche,42,Super Saint-Cyprien,Super_Saint-Cyprien,42160 Saint-Cyprien,9 rue des Prairies-42160 Saint-Cyprien,45.528016,4.231619,https://www.intermarche.com/magasins/01333/saint-cyprien-42160/infos-pratiques
164,Intermarche,42,Super Saint Etienne,Super_Saint_Etienne,42100 Saint Etienne,14 Rue De La Richelandiere-42100 Saint Etienne,45.438725,4.400874,https://www.intermarche.com/magasins/10862/saint-etienne-42100/infos-pratiques
165,Intermarche,42,Super Saint-Etienne,Super_Saint-Etienne,42100 Saint-Etienne,15 rue Nicolas Chaize-Quartier St Etienne Bellevue-42100 Saint-Etienne,45.418299,4.396666,https://www.intermarche.com/magasins/10218/saint-etienne-42100/infos-pratiques
166,Intermarche,42,Contact Saint-Germain-Laval,Contact_Saint-Germain-Laval,42260 Saint-Germain-Laval,150 rue de la Loire-Lieu-dit Pralong-42260 Saint-Germain-Laval,45.833199,4.019296,https://www.intermarche.com/magasins/50279/saint-germain-laval-42260/infos-pratiques
167,Intermarche,42,Contact Saint Heand,Contact_Saint_Heand,42570 Saint Heand,346 Route de Saint Bonnet Les Oules-ZA du Malval-42570 Saint Heand,45.536453,4.373417,https://www.intermarche.com/magasins/07802/saint-heand-42570/infos-pratiques
168,Intermarche,42,Super Saint-Nizier sous Charlieu,Super_Saint-Nizier_sous_Charlieu,42190 Saint-Nizier sous Charlieu,538 rue Magellan-42190 Saint-Nizier sous Charlieu,46.152457,4.155911,https://www.intermarche.com/magasins/10656/saint-nizier-sous-charlieu-42190/infos-pratiques
169,Intermarche,42,Contact Saint Romain Le Puy,Contact_Saint_Romain_Le_Puy,42610 Saint Romain Le Puy,2a Rue Du 8 Mai 1945-42610 Saint Romain Le Puy,45.554787,4.119648,https://www.intermarche.com/magasins/05171/saint-romain-le-puy-42610/infos-pratiques
170,Intermarche,42,Contact St Symphorien De Lay,Contact_St_Symphorien_De_Lay,42470 St Symphorien De Lay,15 Chemin De Marigny-Za Lafayette-42470 St Symphorien De Lay,45.950769,4.206455,https://www.intermarche.com/magasins/06557/st-symphorien-de-lay-42470/infos-pratiques
171,Intermarche,42,Contact Usson-en-forez,Contact_Usson-en-forez,42550 Usson-en-forez,Avenue de la Gare-42550 Usson-en-forez,45.390224,3.944747,https://www.intermarche.com/magasins/06674/usson-en-forez-42550/infos-pratiques
172,Intermarche,63,Super Ambert,Super_Ambert,63600 Ambert,Route du Puy-Saint-Ferreol des Cotes-63600 Ambert,45.538046,3.728024,https://www.intermarche.com/magasins/08115/ambert-63600/infos-pratiques
173,Intermarche,63,Contact Billom,Contact_Billom,63160 Billom,Avenue de la République-63160 Billom,45.725429,3.335144,https://www.intermarche.com/magasins/01359/billom-63160/infos-pratiques
174,Intermarche,63,Contact Blanzat,Contact_Blanzat,63112 Blanzat,Za La Fontaine-63112 Blanzat,45.824986,3.073103,https://www.intermarche.com/magasins/02886/blanzat-63112/infos-pratiques
175,Intermarche,63,Contact Bourg Lastic,Contact_Bourg_Lastic,63760 Bourg Lastic,Pacher De La Besse-63760 Bourg Lastic,45.649921,2.56711,https://www.intermarche.com/magasins/03405/bourg-lastic-63760/infos-pratiques
176,Intermarche,63,Super Brassac-les-Mines,Super_Brassac-les-Mines,63570 Brassac-les-Mines,"2, rue des Sarillères-63570 Brassac-les-Mines",45.413272,3.318365,https://www.intermarche.com/magasins/06969/brassac-les-mines-63570/infos-pratiques
177,Intermarche,63,Super Ceyrat,Super_Ceyrat,63122 Ceyrat,10 avenue de Royat-63122 Ceyrat,45.74705,3.06407,https://www.intermarche.com/magasins/06917/ceyrat-63122/infos-pratiques
178,Intermarche,63,Super Champeix,Super_Champeix,63320 Champeix,Route de Montaigut le Blanc-63320 Champeix,45.563121,3.077034,https://www.intermarche.com/magasins/50357/champeix-63320/infos-pratiques
179,Intermarche,63,Express Clermont-Ferrand,Express_Clermont-Ferrand,63000 Clermont-Ferrand,135 rue Anatole France-63000 Clermont-Ferrand,45.779468,3.115016,https://www.intermarche.com/magasins/06686/clermont-ferrand-63000/infos-pratiques
180,Intermarche,63,Super Clermont-Ferrand,Super_Clermont-Ferrand,63100 Clermont-Ferrand,31 Rue Rouvier-La Plaine-63100 Clermont-Ferrand,45.806996,3.117544,https://www.intermarche.com/magasins/01904/clermont-ferrand-63100/infos-pratiques
181,Intermarche,63,Super Clermont-Ferrand,Super_Clermont-Ferrand,63000 Clermont-Ferrand,98 rue Fontgiève-63000 Clermont-Ferrand,45.782045,3.075865,https://www.intermarche.com/magasins/08118/clermont-ferrand-63000/infos-pratiques
182,Intermarche,63,Super Combronde,Super_Combronde,63460 Combronde,131 Avenue clémentel-63460 Combronde,45.984403,3.087253,https://www.intermarche.com/magasins/06878/combronde-63460/infos-pratiques
183,Intermarche,63,Super Courpière,Super_Courpiere,63120 Courpière,54 avenue de Thiers-63120 Courpière,45.761969,3.53999,https://www.intermarche.com/magasins/08802/courpiere-63120/infos-pratiques
184,Intermarche,63,Super Ennezat,Super_Ennezat,63720 Ennezat,Route de Riom-ZAC des Champiaux-63720 Ennezat,45.895064,3.212857,https://www.intermarche.com/magasins/06866/ennezat-63720/infos-pratiques
185,Intermarche,63,Super Gerzat,Super_Gerzat,63360 Gerzat,Rue Des Martyrs-63360 Gerzat,45.819445,3.148115,https://www.intermarche.com/magasins/01097/gerzat-63360/infos-pratiques
186,Intermarche,63,Super Issoire,Super_Issoire,63500 Issoire,488 route de Perrier-63500 Issoire,45.543561,3.232578,https://www.intermarche.com/magasins/08511/issoire-63500/infos-pratiques
187,Intermarche,63,Contact La Roche Blanche,Contact_La_Roche_Blanche,63670 La Roche Blanche,Lieu-dit Chateaugay-63670 La Roche Blanche,45.701754,3.137548,https://www.intermarche.com/magasins/08135/la-roche-blanche-63670/infos-pratiques
188,Intermarche,63,Hyper Le Cendre,Hyper_Le_Cendre,63670 Le Cendre,Rue Jean Mermoz-63670 Le Cendre,45.728337,3.18606,https://www.intermarche.com/magasins/08671/le-cendre-63670/infos-pratiques
189,Intermarche,63,Super Murat le Quaire,Super_Murat_le_Quaire,63150 Murat le Quaire,Avenue du Marechal Leclerc-63150 Murat le Quaire,45.594492,2.761678,https://www.intermarche.com/magasins/06885/murat-le-quaire-63150/infos-pratiques
190,Intermarche,63,Contact Perignat sur Allier,Contact_Perignat_sur_Allier,63800 Perignat sur Allier,8 rue Bellerive-Route de Cournon-63800 Perignat sur Allier,45.728392,3.222476,https://www.intermarche.com/magasins/08151/perignat-sur-allier-63800/infos-pratiques
191,Intermarche,63,Super Pionsat,Super_Pionsat,63330 Pionsat,21 Route Lafayette-63330 Pionsat,46.111142,2.697627,https://www.intermarche.com/magasins/06453/pionsat-63330/infos-pratiques
192,Intermarche,63,Super Pont du Chateau,Super_Pont_du_Chateau,63430 Pont du Chateau,9 rue Roger Prat-63430 Pont du Chateau,45.800427,3.243017,https://www.intermarche.com/magasins/08727/pont-du-chateau-63430/infos-pratiques
193,Intermarche,63,Contact Randan,Contact_Randan,63310 Randan,Place des Charmes-63310 Randan,46.015415,3.348699,https://www.intermarche.com/magasins/50262/randan-63310/infos-pratiques
194,Intermarche,63,Contact Romagnat,Contact_Romagnat,63540 Romagnat,9001 Boulevard Georges Couthon-63540 Romagnat,45.735092,3.099561,https://www.intermarche.com/magasins/09708/romagnat-63540/infos-pratiques
195,Intermarche,63,Super Saint Georges De Mons,Super_Saint_Georges_De_Mons,63780 Saint Georges De Mons,Rue Champs Des Grelières-D19-63780 Saint Georges De Mons,45.932752,2.835717,https://www.intermarche.com/magasins/08945/saint-georges-de-mons-63780/infos-pratiques
196,Intermarche,63,Contact Tallende,Contact_Tallende,63450 Tallende,Route de Clermont-63450 Tallende,45.672281,3.127466,https://www.intermarche.com/magasins/50127/tallende-63450/infos-pratiques
197,Intermarche,63,Super Thiers,Super_Thiers,63300 Thiers,22 Avenue du Général de Gaulle-63300 Thiers,45.843551,3.51789,https://www.intermarche.com/magasins/08651/thiers-63300/infos-pratiques
198,Intermarche,69,Super Amplepuis,Super_Amplepuis,69550 Amplepuis,Route de Roanne-69550 Amplepuis,45.978679,4.320296,https://www.intermarche.com/magasins/10672/amplepuis-69550/infos-pratiques
199,Intermarche,69,Super Belleville En Beaujolais,Super_Belleville_En_Beaujolais,69220 Belleville En Beaujolais,Le Pré De La Cloche-69220 Belleville En Beaujolais,46.104356,4.747885,https://www.intermarche.com/magasins/10109/belleville-en-beaujolais-69220/infos-pratiques
200,Intermarche,69,Super Chassieu,Super_Chassieu,69680 Chassieu,28 route de Lyon-69680 Chassieu,45.738924,4.958271,https://www.intermarche.com/magasins/10679/chassieu-69680/infos-pratiques
201,Intermarche,69,Super Chazay-d'Azergues,Super_Chazay-d_Azergues,69380 Chazay-d'Azergues,8 Rue Marius Berliet-69380 Chazay-d'Azergues,45.868034,4.699541,https://www.intermarche.com/magasins/06558/chazay-d'azergues-69380/infos-pratiques
202,Intermarche,69,Super Corbas,Super_Corbas,69960 Corbas,1 Rue Jean Macé-Zac Des Epis D'or-69960 Corbas,45.659842,4.901383,https://www.intermarche.com/magasins/10138/corbas-69960/infos-pratiques
203,Intermarche,69,Contact Cours-la-ville,Contact_Cours-la-ville,69470 Cours-la-ville,1 Boulevard Pierre de Coubertin-69470 Cours-la-ville,46.105555,4.320949,https://www.intermarche.com/magasins/06673/cours-la-ville-69470/infos-pratiques
204,Intermarche,69,Super Craponne,Super_Craponne,69290 Craponne,11 avenue Edouard Millaud-69290 Craponne,45.74728,4.741908,https://www.intermarche.com/magasins/10110/craponne-69290/infos-pratiques
205,Intermarche,69,Super Decines Charpieu,Super_Decines_Charpieu,69150 Decines Charpieu,209 Avenue Jean Jaurès-69150 Decines Charpieu,45.771033,4.957441,https://www.intermarche.com/magasins/01197/decines-charpieu-69150/infos-pratiques
206,Intermarche,69,Super Givors,Super_Givors,69700 Givors,3 Rue De La Fraternite 69700 Givors-3 Rue De La Fraternite 69700 Givors-69700 Givors,45.593274,4.77141,https://www.intermarche.com/magasins/01077/givors-69700/infos-pratiques
207,Intermarche,69,Super Gleize,Super_Gleize,69400 Gleize,100 Rue Du Tacot Beaujolais-Zac D'epinay-69400 Gleize,46.005145,4.707491,https://www.intermarche.com/magasins/09709/gleize-69400/infos-pratiques
208,Intermarche,69,Super Grigny,Super_Grigny,69520 Grigny,Le Jayon-69520 Grigny,45.604881,4.782593,https://www.intermarche.com/magasins/10348/grigny-69520/infos-pratiques
209,Intermarche,69,Contact Lamure-sur-Azergues,Contact_Lamure-sur-Azergues,69870 Lamure-sur-Azergues,La Feuilletiere-69870 Lamure-sur-Azergues,46.034573,4.494588,https://www.intermarche.com/magasins/01582/lamure-sur-azergues-69870/infos-pratiques
210,Intermarche,69,Express Lyon,Express_Lyon,69003 Lyon,241 rue Paul Bert-DRIVE 24 - 81 rue Etienne Richerand-69003 Lyon,45.756866,4.865949,https://www.intermarche.com/magasins/06813/lyon-69003/infos-pratiques
211,Intermarche,69,Express Lyon,Express_Lyon,69007 Lyon,377 Rue Garibaldi-Arret Tram T2 Berthelot-69007 Lyon,45.744063,4.848093,https://www.intermarche.com/magasins/07801/lyon-69007/infos-pratiques
212,Intermarche,69,Express Lyon,Express_Lyon,69008 Lyon,145 Route De Vienne-69008 Lyon,45.735806,4.853273,https://www.intermarche.com/magasins/08231/lyon-69008/infos-pratiques
213,Intermarche,69,Express Lyon,Express_Lyon,69008 Lyon,9 Rue Audibert et Lavirotte-69008 Lyon,45.740274,4.860013,https://www.intermarche.com/magasins/07892/lyon-69008/infos-pratiques
214,Intermarche,69,Express Lyon,Express_Lyon,69009 Lyon,33 Rue Albert Falsan-69009 Lyon,45.804265,4.834714,https://www.intermarche.com/magasins/08205/lyon-69009/infos-pratiques
215,Intermarche,69,Super Lyon,Super_Lyon,69009 Lyon,68-70 rue Marietton-69009 Lyon,45.77611,4.800289,https://www.intermarche.com/magasins/07477/lyon-69009/infos-pratiques
216,Intermarche,69,Express Lyon,Express_Lyon,69008 Lyon,322 Avenue Berthelot-69008 Lyon,45.737294,4.866239,https://www.intermarche.com/magasins/09644/lyon-69008/infos-pratiques
217,Intermarche,69,Express Lyon,Express_Lyon,69006 Lyon,76 Rue Tronchet-69006 Lyon,45.770165,4.851708,https://www.intermarche.com/magasins/09805/lyon-69006/infos-pratiques
218,Intermarche,69,Express Lyon,Express_Lyon,69003 Lyon,"81, Rue Etienne Richerand-69003 Lyon",45.757328,4.86592,https://www.intermarche.com/magasins/06813_1/lyon-69003/infos-pratiques
219,Intermarche,69,Express Lyon,Express_Lyon,69004 Lyon,37 rue Hénon-69004 Lyon,45.779459,4.828324,https://www.intermarche.com/magasins/06657/lyon-69004/infos-pratiques
220,Intermarche,69,Express Lyon,Express_Lyon,69007 Lyon,68 Avenue Debourg-69007 Lyon,45.731266,4.831136,https://www.intermarche.com/magasins/10727/lyon-69007/infos-pratiques
221,Intermarche,69,Express Lyon,Express_Lyon,69007 Lyon,262 rue de Créqui-69007 Lyon,45.752717,4.849026,https://www.intermarche.com/magasins/07034/lyon-69007/infos-pratiques
222,Intermarche,69,Super Meyzieu,Super_Meyzieu,69330 Meyzieu,80 Rue Joseph Desbois-69330 Meyzieu,45.781961,5.006195,https://www.intermarche.com/magasins/10461/meyzieu-69330/infos-pratiques
223,Intermarche,69,Super Oullins,Super_Oullins,69600 Oullins,141 boulevard Emile Zola-69600 Oullins,45.721415,4.794082,https://www.intermarche.com/magasins/10753/oullins-69600/infos-pratiques
224,Intermarche,69,Super Pierre Bénite,Super_Pierre_Benite,69310 Pierre Bénite,85 Boulevard De L'europe-Parking au 38 rue du 8 mai 1945-69310 Pierre Bénite,45.70071,4.82347,https://www.intermarche.com/magasins/10545/pierre-benite-69310/infos-pratiques
225,Intermarche,69,Super Pontcharra-sur-Turdine,Super_Pontcharra-sur-Turdine,69490 Pontcharra-sur-Turdine,La Croisette-69490 Pontcharra-sur-Turdine,45.877467,4.515188,https://www.intermarche.com/magasins/10494/pontcharra-sur-turdine-69490/infos-pratiques
226,Intermarche,69,Super Rillieux-la-Pape,Super_Rillieux-la-Pape,69140 Rillieux-la-Pape,3 Rue de Madrid-79 avenue de l'Europe-69140 Rillieux-la-Pape,45.817981,4.902327,https://www.intermarche.com/magasins/09739/rillieux-la-pape-69140/infos-pratiques
227,Intermarche,69,Super Rochetaillée-sur-Saône,Super_Rochetaillee-sur-Saone,69270 Rochetaillée-sur-Saône,261 Quai Pierre Dupont-69270 Rochetaillée-sur-Saône,45.843002,4.834939,https://www.intermarche.com/magasins/10503/rochetaillee-sur-saone-69270/infos-pratiques
228,Intermarche,69,Super Saint Bonnet De Mure,Super_Saint_Bonnet_De_Mure,69720 Saint Bonnet De Mure,131 Avenue Charles De Gaulle-69720 Saint Bonnet De Mure,45.697405,5.015538,https://www.intermarche.com/magasins/06677/saint-bonnet-de-mure-69720/infos-pratiques
229,Intermarche,69,Super Souzy,Super_Souzy,69610 Souzy,620 Rue Des Grandes Terres-69610 Souzy,45.69928,4.45434,https://www.intermarche.com/magasins/10148/souzy-69610/infos-pratiques
230,Intermarche,69,Super Thizy Les Bourgs,Super_Thizy_Les_Bourgs,69240 Thizy Les Bourgs,Route De Roanne-69240 Thizy Les Bourgs,46.035135,4.289115,https://www.intermarche.com/magasins/10369/thizy-les-bourgs-69240/infos-pratiques
231,Intermarche,69,Super Villefranche sur Saône,Super_Villefranche_sur_Saone,69400 Villefranche sur Saône,477 rue Jules Ferry-69400 Villefranche sur Saône,45.979492,4.735557,https://www.intermarche.com/magasins/10405/villefranche-sur-saone-69400/infos-pratiques
232,Intermarche,69,Express Villeurbanne,Express_Villeurbanne,69100 Villeurbanne,95 rue Magenta-69100 Villeurbanne,45.764152,4.871799,https://www.intermarche.com/magasins/06711/villeurbanne-69100/infos-pratiques
233,Intermarche,69,Express Villeurbanne,Express_Villeurbanne,69100 Villeurbanne,42 rue Poizat-69100 Villeurbanne,45.756257,4.891516,https://www.intermarche.com/magasins/07042/villeurbanne-69100/infos-pratiques
234,Intermarche,69,Express Villeurbanne,Express_Villeurbanne,69100 Villeurbanne,Rue du 8 Mai 1945-69100 Villeurbanne,45.781112,4.890751,https://www.intermarche.com/magasins/10030/villeurbanne-69100/infos-pratiques
235,Intermarche,73,Hyper Aix-les-Bains,Hyper_Aix-les-Bains,73100 Aix-les-Bains,33 Rue Clément Ader-73100 Aix-les-Bains,45.676082,5.90499,https://www.intermarche.com/magasins/10661/aix-les-bains-73100/infos-pratiques
236,Intermarche,73,Super Albertville,Super_Albertville,73200 Albertville,100 rue Pasteur-73200 Albertville,45.661327,6.380643,https://www.intermarche.com/magasins/10717/albertville-73200/infos-pratiques
237,Intermarche,73,Hyper Albertville,Hyper_Albertville,73200 Albertville,Chemin de la Cassine-Zi Du Chiriac-73200 Albertville,45.655958,6.367811,https://www.intermarche.com/magasins/10662/albertville-73200/infos-pratiques
238,Intermarche,73,Super Bourg-Saint-Maurice,Super_Bourg-Saint-Maurice,73700 Bourg-Saint-Maurice,Lieu-dit Le Mollard-73700 Bourg-Saint-Maurice,45.623635,6.779659,https://www.intermarche.com/magasins/01351/bourg-saint-maurice-73700/infos-pratiques
239,Intermarche,73,Super Fourneaux,Super_Fourneaux,73500 Fourneaux,70 avenue de la Liberté-73500 Fourneaux,45.190999,6.644526,https://www.intermarche.com/magasins/10393/fourneaux-73500/infos-pratiques
240,Intermarche,73,Super Hermillon,Super_Hermillon,73300 Hermillon,Quartier Longefan-73300 Hermillon,45.283172,6.358372,https://www.intermarche.com/magasins/10114/hermillon-73300/infos-pratiques
241,Intermarche,73,Super La Biolle,Super_La_Biolle,73410 La Biolle,54 Rue Du Glatey-73410 La Biolle,45.760253,5.932889,https://www.intermarche.com/magasins/10197/la-biolle-73410/infos-pratiques
242,Intermarche,73,Super Le Pont De Beauvoisin,Super_Le_Pont_De_Beauvoisin,73330 Le Pont De Beauvoisin,Rue Emmanuel Cretet-Zi La Baronnie-73330 Le Pont De Beauvoisin,45.530135,5.684922,https://www.intermarche.com/magasins/10920/le-pont-de-beauvoisin-73330/infos-pratiques
243,Intermarche,73,Super Montmelian,Super_Montmelian,73800 Montmelian,Chemin de la Caronnière-73800 Montmelian,45.506311,6.065835,https://www.intermarche.com/magasins/10686/montmelian-73800/infos-pratiques
244,Intermarche,73,Super Saint-Pierre-d'Albigny,Super_Saint-Pierre-d_Albigny,73250 Saint-Pierre-d'Albigny,260 Rue des Blaches-Zi Des Carouges-73250 Saint-Pierre-d'Albigny,45.553419,6.164521,https://www.intermarche.com/magasins/10174/saint-pierre-d'albigny-73250/infos-pratiques
245,Intermarche,73,Hyper Ste Marie De Cuines,Hyper_Ste_Marie_De_Cuines,73130 Ste Marie De Cuines,Les Grands Prés-73130 Ste Marie De Cuines,45.348473,6.303524,https://www.intermarche.com/magasins/10225/ste-marie-de-cuines-73130/infos-pratiques
246,Intermarche,73,Contact Val-Cenis,Contact_Val-Cenis,73500 Val-Cenis,ZA DES FAVIERES (Sollières-Sardières)-73500 Val-Cenis,45.266002,6.812379,https://www.intermarche.com/magasins/06016/val-cenis-73500/infos-pratiques
247,Intermarche,73,Contact Val D'arc,Contact_Val_D_arc,73220 Val D'arc,46 Grande Rue Aiguebelle-73220 Val D'arc,45.542434,6.304543,https://www.intermarche.com/magasins/06662/val-d'arc-73220/infos-pratiques
248,Intermarche,73,Contact Villard-sur-Doron,Contact_Villard-sur-Doron,73270 Villard-sur-Doron,100 route du Jardy-73270 Villard-sur-Doron,45.727176,6.533145,https://www.intermarche.com/magasins/10172/villard-sur-doron-73270/infos-pratiques
249,Intermarche,69,Express Villeurbanne,Express_Villeurbanne,69100 Villeurbanne,25 Avenue Roger Salengro-69100 Villeurbanne,45.775336,4.869792,https://www.intermarche.com/magasins/07583/villeurbanne-69100/infos-pratiques
250,Intermarche,73,Super Viviers du Lac,Super_Viviers_du_Lac,73420 Viviers du Lac,Terre Nue-73420 Viviers du Lac,45.653444,5.893777,https://www.intermarche.com/magasins/10131/viviers-du-lac-73420/infos-pratiques
251,Intermarche,21,Super Auxonne,Super_Auxonne,21130 Auxonne,3 bis rue de Labergement-21130 Auxonne,47.189495,5.386978,https://www.intermarche.com/magasins/07229/auxonne-21130/infos-pratiques
252,Intermarche,21,Super Beaune,Super_Beaune,21200 Beaune,37 route de Seurre-Rocade est-21200 Beaune,47.019335,4.85644,https://www.intermarche.com/magasins/07685/beaune-21200/infos-pratiques
253,Intermarche,21,Super Châtillon-sur-Seine,Super_Chatillon-sur-Seine,21400 Châtillon-sur-Seine,Chaussée de l'Europe-21400 Châtillon-sur-Seine,47.866832,4.572726,https://www.intermarche.com/magasins/07179/chatillon-sur-seine-21400/infos-pratiques
254,Intermarche,21,Super Dijon,Super_Dijon,21000 Dijon,12 Boulevard Georges Clemenceau-Centre Commercial Clémenceau-21000 Dijon,47.327581,5.049033,https://www.intermarche.com/magasins/10710/dijon-21000/infos-pratiques
255,Intermarche,21,Express Dijon,Express_Dijon,21000 Dijon,78 BIS Avenue du Drapeau-21000 Dijon,47.340328,5.044805,https://www.intermarche.com/magasins/09941/dijon-21000/infos-pratiques
256,Intermarche,21,Super Dijon,Super_Dijon,21000 Dijon,Boulevard Gaston Bachelard-30-21000 Dijon,47.316797,5.004401,https://www.intermarche.com/magasins/07122/dijon-21000/infos-pratiques
257,Intermarche,21,Super Dijon,Super_Dijon,21000 Dijon,116 Avenue Jean Jaurès-21000 Dijon,47.306714,5.022801,https://www.intermarche.com/magasins/07140/dijon-21000/infos-pratiques
258,Intermarche,21,Super Dijon,Super_Dijon,21000 Dijon,11 boulevard de l'Université-21000 Dijon,47.313431,5.053509,https://www.intermarche.com/magasins/07152/dijon-21000/infos-pratiques
259,Intermarche,21,Super Dijon,Super_Dijon,21000 Dijon,2 avenue du drapeau-21000 Dijon,47.330086,5.043697,https://www.intermarche.com/magasins/06298/dijon-21000/infos-pratiques
260,Intermarche,21,Express Dijon,Express_Dijon,21000 Dijon,7 Rue de Talant-21000 Dijon,47.327145,5.028237,https://www.intermarche.com/magasins/09536/dijon-21000/infos-pratiques
261,Intermarche,21,Super Fleurey sur Ouche,Super_Fleurey_sur_Ouche,21410 Fleurey sur Ouche,Rue du stade-21410 Fleurey sur Ouche,47.309994,4.857953,https://www.intermarche.com/magasins/07512/fleurey-sur-ouche-21410/infos-pratiques
262,Intermarche,21,Contact Fontaine-Française,Contact_Fontaine-Francaise,21610 Fontaine-Française,34 Rue Henry Berger-21610 Fontaine-Française,47.524461,5.360996,https://www.intermarche.com/magasins/09680/fontaine-francaise-21610/infos-pratiques
263,Intermarche,21,Super Fontaine les Dijon,Super_Fontaine_les_Dijon,21121 Fontaine les Dijon,26 rue du Faubourg Saint-Nicolas-Les Saverney-21121 Fontaine les Dijon,47.336949,5.032457,https://www.intermarche.com/magasins/07203/fontaine-les-dijon-21121/infos-pratiques
264,Intermarche,21,Hyper Fontaine-lès-Dijon,Hyper_Fontaine-les-Dijon,21121 Fontaine-lès-Dijon,Rue des Prés Potets-21121 Fontaine-lès-Dijon,47.3556,5.033745,https://www.intermarche.com/magasins/10718/fontaine-les-dijon-21121/infos-pratiques
265,Intermarche,21,Super Genlis,Super_Genlis,21110 Genlis,Rue de la Gare-21110 Genlis,47.246166,5.21974,https://www.intermarche.com/magasins/07127/genlis-21110/infos-pratiques
266,Intermarche,21,Super Is-sur-Tille,Super_Is-sur-Tille,21120 Is-sur-Tille,20 rue François Mitterand-21120 Is-sur-Tille,47.529858,5.115446,https://www.intermarche.com/magasins/07148/is-sur-tille-21120/infos-pratiques
267,Intermarche,21,Super Longvic,Super_Longvic,21600 Longvic,1 rue Roland Dorgelès-21600 Longvic,47.287533,5.063109,https://www.intermarche.com/magasins/07112/longvic-21600/infos-pratiques
268,Intermarche,21,Super Mirebeau sur Beze,Super_Mirebeau_sur_Beze,21310 Mirebeau sur Beze,10 rue Paul Auban-21310 Mirebeau sur Beze,47.392648,5.310119,https://www.intermarche.com/magasins/07556/mirebeau-sur-beze-21310/infos-pratiques
269,Intermarche,21,Super Montbard,Super_Montbard,21500 Montbard,65 avenue de Dijon-21500 Montbard,47.638002,4.300274,https://www.intermarche.com/magasins/07451/montbard-21500/infos-pratiques
270,Intermarche,21,Super Nuits-Saint-Georges,Super_Nuits-Saint-Georges,21700 Nuits-Saint-Georges,6 rue Caumont Bréon-Route de Meuilley-21700 Nuits-Saint-Georges,47.140499,4.948871,https://www.intermarche.com/magasins/07415/nuits-saint-georges-21700/infos-pratiques
271,Intermarche,21,Super Saint-Apollinaire,Super_Saint-Apollinaire,21850 Saint-Apollinaire,1160 Cours de Gray-21850 Saint-Apollinaire,47.332246,5.091556,https://www.intermarche.com/magasins/06607/saint-apollinaire-21850/infos-pratiques
272,Intermarche,21,Super Saint-Usage,Super_Saint-Usage,21170 Saint-Usage,Route de Dijon-Cd 968-21170 Saint-Usage,47.110547,5.260572,https://www.intermarche.com/magasins/05827/saint-usage-21170/infos-pratiques
273,Intermarche,21,Super Semur en Auxois,Super_Semur_en_Auxois,21140 Semur en Auxois,19 Avenue du Général Mazillier-21140 Semur en Auxois,47.492369,4.340951,https://www.intermarche.com/magasins/07106/semur-en-auxois-21140/infos-pratiques
274,Intermarche,21,Super Seurre,Super_Seurre,21250 Seurre,Rue du Faubourg Saint-Georges-21250 Seurre,46.990697,5.147449,https://www.intermarche.com/magasins/07133/seurre-21250/infos-pratiques
275,Intermarche,25,Super Audincourt,Super_Audincourt,25400 Audincourt,4 allée du Chêne-ZI Les Arbletiers - Rue Jalesie-25400 Audincourt,47.486032,6.84389,https://www.intermarche.com/magasins/07109/audincourt-25400/infos-pratiques
276,Intermarche,25,Super Baume les Dames,Super_Baume_les_Dames,25110 Baume les Dames,2 rue Rosa Luxemburg-25110 Baume les Dames,47.347605,6.337105,https://www.intermarche.com/magasins/07157/baume-les-dames-25110/infos-pratiques
277,Intermarche,25,Express Besancon,Express_Besancon,25000 Besancon,20 avenue Fontaine Argent-25000 Besancon,47.24482,6.032299,https://www.intermarche.com/magasins/07570/besancon-25000/infos-pratiques
278,Intermarche,25,Super Besancon,Super_Besancon,25000 Besancon,8 place René Cassin-25000 Besancon,47.218694,5.970061,https://www.intermarche.com/magasins/07135/besancon-25000/infos-pratiques
279,Intermarche,25,Hyper Besançon,Hyper_Besancon,25000 Besançon,Rue Louis Aragon-Centre Commercial Chateaufarine-25000 Besançon,47.217054,5.946275,https://www.intermarche.com/magasins/10663/besancon-25000/infos-pratiques
280,Intermarche,25,Super Besançon,Super_Besancon,25000 Besançon,73 boulevard Léon Blum-25000 Besançon,47.261425,6.035164,https://www.intermarche.com/magasins/07132/besancon-25000/infos-pratiques
281,Intermarche,25,Super Besançon,Super_Besancon,25000 Besançon,3 Place Pierre de Coubertin-25000 Besançon,47.247474,6.00037,https://www.intermarche.com/magasins/07113/besancon-25000/infos-pratiques
282,Intermarche,25,Contact Cussey Sur L'ognon,Contact_Cussey_Sur_L_ognon,25870 Cussey Sur L'ognon,12 Grande Rue-25870 Cussey Sur L'ognon,47.336896,5.938808,https://www.intermarche.com/magasins/09519/cussey-sur-l'ognon-25870/infos-pratiques
283,Intermarche,25,Super Dampierre Les Bois,Super_Dampierre_Les_Bois,25490 Dampierre Les Bois,Rue De Fesches-Combe Du Magny-25490 Dampierre Les Bois,47.51911,6.914724,https://www.intermarche.com/magasins/50358/dampierre-les-bois-25490/infos-pratiques
284,Intermarche,25,Super Les Hôpitaux Neufs,Super_Les_Hopitaux_Neufs,25370 Les Hôpitaux Neufs,52 route de Lausanne-25370 Les Hôpitaux Neufs,46.771324,6.379084,https://www.intermarche.com/magasins/01901/les-hopitaux-neufs-25370/infos-pratiques
285,Intermarche,25,Hyper L'isle Sur Le Doubs,Hyper_L_isle_Sur_Le_Doubs,25250 L'isle Sur Le Doubs,8 Avenue Foch-25250 L'isle Sur Le Doubs,47.446418,6.578611,https://www.intermarche.com/magasins/05535/l'isle-sur-le-doubs-25250/infos-pratiques
286,Intermarche,25,Hyper Maiche,Hyper_Maiche,25120 Maiche,Rue du Jura-25120 Maiche,47.246072,6.80999,https://www.intermarche.com/magasins/07111/maiche-25120/infos-pratiques
287,Intermarche,25,Contact Marchaux,Contact_Marchaux,25640 Marchaux,Rue de la Grappe-25640 Marchaux,47.320182,6.127022,https://www.intermarche.com/magasins/07411/marchaux-25640/infos-pratiques
288,Intermarche,25,Contact Montbeliard,Contact_Montbeliard,25200 Montbeliard,15 rue du Port-25200 Montbeliard,47.503671,6.79204,https://www.intermarche.com/magasins/07121/montbeliard-25200/infos-pratiques
289,Intermarche,25,Hyper Morteau,Hyper_Morteau,25500 Morteau,Rue Victor Hugo-25500 Morteau,47.056294,6.615754,https://www.intermarche.com/magasins/07749/morteau-25500/infos-pratiques
290,Intermarche,25,Hyper Pontarlier,Hyper_Pontarlier,25300 Pontarlier,66 Rue de Salins-25300 Pontarlier,46.909358,6.336665,https://www.intermarche.com/magasins/10666/pontarlier-25300/infos-pratiques
291,Intermarche,25,Super Pont De Roide Vermondans,Super_Pont_De_Roide_Vermondans,25150 Pont De Roide Vermondans,26 Rue Des Bouleaux-25150 Pont De Roide Vermondans,47.389044,6.768745,https://www.intermarche.com/magasins/07883/pont-de-roide-vermondans-25150/infos-pratiques
292,Intermarche,25,Super Quingey,Super_Quingey,25440 Quingey,9 route de Lyon-25440 Quingey,47.102015,5.885694,https://www.intermarche.com/magasins/50320/quingey-25440/infos-pratiques
293,Intermarche,25,Super Saint Vit,Super_Saint_Vit,25410 Saint Vit,2 Rue De Besançon-25410 Saint Vit,47.183322,5.814574,https://www.intermarche.com/magasins/50237/saint-vit-25410/infos-pratiques
294,Intermarche,25,Contact Seloncourt,Contact_Seloncourt,25230 Seloncourt,28 Rue du Général Leclerc-25230 Seloncourt,47.459344,6.86614,https://www.intermarche.com/magasins/01412/seloncourt-25230/infos-pratiques
295,Intermarche,70,Super Corbenay,Super_Corbenay,70320 Corbenay,Avenue Jacques Parisot-70320 Corbenay,47.881288,6.306371,https://www.intermarche.com/magasins/10664/corbenay-70320/infos-pratiques
296,Intermarche,70,Contact Corre,Contact_Corre,70500 Corre,1 route de Bourbonne-70500 Corre,47.917636,5.983487,https://www.intermarche.com/magasins/01573/corre-70500/infos-pratiques
297,Intermarche,70,Super Dampierre-sur-Salon,Super_Dampierre-sur-Salon,70180 Dampierre-sur-Salon,Rue Pasteur-70180 Dampierre-sur-Salon,47.553258,5.684438,https://www.intermarche.com/magasins/50266/dampierre-sur-salon-70180/infos-pratiques
298,Intermarche,70,Super Gray,Super_Gray,70100 Gray,7 Quai Mavia-70100 Gray,47.448617,5.585335,https://www.intermarche.com/magasins/07877/gray-70100/infos-pratiques
299,Intermarche,70,Contact Gy,Contact_Gy,70700 Gy,Lieu-dit Les Vorpes-70700 Gy,47.412625,5.81239,https://www.intermarche.com/magasins/50239/gy-70700/infos-pratiques
300,Intermarche,70,Super Jussey,Super_Jussey,70500 Jussey,72 Rue de la Libération-70500 Jussey,47.828737,5.892474,https://www.intermarche.com/magasins/07119/jussey-70500/infos-pratiques
301,Intermarche,70,Super Lure,Super_Lure,70200 Lure,Route de Belfort-70200 Lure,47.674837,6.518074,https://www.intermarche.com/magasins/05835/lure-70200/infos-pratiques
302,Intermarche,70,Super Luxeuil-les-Bains,Super_Luxeuil-les-Bains,70300 Luxeuil-les-Bains,Avenue du Maréchal Turenne-70300 Luxeuil-les-Bains,47.809991,6.361084,https://www.intermarche.com/magasins/10667/luxeuil-les-bains-70300/infos-pratiques
303,Intermarche,70,Super Marnay,Super_Marnay,70150 Marnay,Avenue de Marnay la Ville-70150 Marnay,47.289465,5.767142,https://www.intermarche.com/magasins/07131/marnay-70150/infos-pratiques
304,Intermarche,70,Super Navenne,Super_Navenne,70000 Navenne,27 rue Pierre Curie-70000 Navenne,47.613527,6.157894,https://www.intermarche.com/magasins/07216/navenne-70000/infos-pratiques
305,Intermarche,70,Super Rioz,Super_Rioz,70190 Rioz,Rue du Tacot-Za De La Charriere-70190 Rioz,47.428428,6.067569,https://www.intermarche.com/magasins/10669/rioz-70190/infos-pratiques
306,Intermarche,70,Super Vesoul,Super_Vesoul,70000 Vesoul,1 rue de la Vaugine-70000 Vesoul,47.641494,6.144351,https://www.intermarche.com/magasins/07120/vesoul-70000/infos-pratiques
307,Intermarche,70,Super Villersexel,Super_Villersexel,70110 Villersexel,711 Rue du 13 Septembre 1944-Bp N°1-70110 Villersexel,47.545199,6.430982,https://www.intermarche.com/magasins/07123/villersexel-70110/infos-pratiques
308,Intermarche,39,Super Asnans-Beauvoisin,Super_Asnans-Beauvoisin,39120 Asnans-Beauvoisin,41 route Longwy-Lieu dit Champ-Chien-39120 Asnans-Beauvoisin,46.954597,5.400141,https://www.intermarche.com/magasins/02917/asnans-beauvoisin-39120/infos-pratiques
309,Intermarche,39,Contact Damparis,Contact_Damparis,39500 Damparis,Place du 1er Mai-39500 Damparis,47.070333,5.413518,https://www.intermarche.com/magasins/50260/damparis-39500/infos-pratiques
310,Intermarche,39,Super Dole,Super_Dole,39100 Dole,5 Avenue Léon Jouhaux-39100 Dole,47.090497,5.483425,https://www.intermarche.com/magasins/07449/dole-39100/infos-pratiques
311,Intermarche,39,Hyper Dole,Hyper_Dole,39100 Dole,9 Rue Léon Bel-Zone Commerciale Les Epenottes-39100 Dole,47.109261,5.50989,https://www.intermarche.com/magasins/07117/dole-39100/infos-pratiques
312,Intermarche,39,Super Les Rousses,Super_Les_Rousses,39220 Les Rousses,Route du Génie-Espace Coeur du Jura-39220 Les Rousses,46.486794,6.057093,https://www.intermarche.com/magasins/50188/les-rousses-39220/infos-pratiques
313,Intermarche,39,Super Lons le Saunier,Super_Lons_le_Saunier,39000 Lons le Saunier,34 avenue Camille Prost-39000 Lons le Saunier,46.6706,5.570895,https://www.intermarche.com/magasins/07105/lons-le-saunier-39000/infos-pratiques
314,Intermarche,39,Hyper Lons-le-Saunier,Hyper_Lons-le-Saunier,39000 Lons-le-Saunier,Rue des Salines-39000 Lons-le-Saunier,46.673212,5.539212,https://www.intermarche.com/magasins/10725/lons-le-saunier-39000/infos-pratiques
315,Intermarche,39,Super Morez,Super_Morez,39400 Morez,15 Bis Route De Prémanon-La Doye-39400 Morez,46.50049,6.027503,https://www.intermarche.com/magasins/03737/morez-39400/infos-pratiques
316,Intermarche,39,Super Poligny,Super_Poligny,39800 Poligny,Rn 83-39800 Poligny,46.83752,5.68697,https://www.intermarche.com/magasins/07192/poligny-39800/infos-pratiques
317,Intermarche,39,Super Saint-Claude,Super_Saint-Claude,39200 Saint-Claude,38 route de Lyon-39200 Saint-Claude,46.380629,5.834845,https://www.intermarche.com/magasins/07104/saint-claude-39200/infos-pratiques
318,Intermarche,58,Super Challuy,Super_Challuy,58000 Challuy,Le Clos Ry-Rn 7-58000 Challuy,46.961418,3.157052,https://www.intermarche.com/magasins/08763/challuy-58000/infos-pratiques
319,Intermarche,58,Super Decize,Super_Decize,58300 Decize,107 route de Moulins-58300 Decize,46.820802,3.451425,https://www.intermarche.com/magasins/08116/decize-58300/infos-pratiques
320,Intermarche,58,Super Donzy,Super_Donzy,58220 Donzy,1 Rue Guy De Jean-58220 Donzy,47.371079,3.108069,https://www.intermarche.com/magasins/01255/donzy-58220/infos-pratiques
321,Intermarche,58,Super Dornes,Super_Dornes,58390 Dornes,Route de moulins-Lieu dit les bondeaux-58390 Dornes,46.70722,3.35326,https://www.intermarche.com/magasins/07887/dornes-58390/infos-pratiques
322,Intermarche,58,Super Fourchambault,Super_Fourchambault,58600 Fourchambault,9 Rue Du 4 Septembre-58600 Fourchambault,47.022983,3.08306,https://www.intermarche.com/magasins/02520/fourchambault-58600/infos-pratiques
323,Intermarche,58,Super Guerigny,Super_Guerigny,58130 Guerigny,5 Rue Lanessan-58130 Guerigny,47.088935,3.196807,https://www.intermarche.com/magasins/01249/guerigny-58130/infos-pratiques
324,Intermarche,58,Super La Charité Sur Loire,Super_La_Charite_Sur_Loire,58400 La Charité Sur Loire,2 Rue Plantes Des Religieuses-58400 La Charité Sur Loire,47.183281,3.028386,https://www.intermarche.com/magasins/02766/la-charite-sur-loire-58400/infos-pratiques
325,Intermarche,58,Super La Machine,Super_La_Machine,58260 La Machine,Route de Decize-Forêt des Glénons-58260 La Machine,46.881557,3.465124,https://www.intermarche.com/magasins/50114/la-machine-58260/infos-pratiques
326,Intermarche,58,Contact Magny-Cours,Contact_Magny-Cours,58470 Magny-Cours,Rue de Paris-58470 Magny-Cours,46.886404,3.151875,https://www.intermarche.com/magasins/07038/magny-cours-58470/infos-pratiques
327,Intermarche,58,Hyper Nevers,Hyper_Nevers,58000 Nevers,Rue Bernard Palissy-Centre Commercial Bords De Loire-58000 Nevers,46.987323,3.173869,https://www.intermarche.com/magasins/08585/nevers-58000/infos-pratiques
328,Intermarche,58,Super Nevers,Super_Nevers,58000 Nevers,Rue Romain Baron-58000 Nevers,46.98213,3.126098,https://www.intermarche.com/magasins/03273/nevers-58000/infos-pratiques
329,Intermarche,58,Contact Saint-Benin-d'Azy,Contact_Saint-Benin-d_Azy,58270 Saint-Benin-d'Azy,ZAC de la Badelle-58270 Saint-Benin-d'Azy,47.004627,3.398734,https://www.intermarche.com/magasins/50264/saint-benin-d'azy-58270/infos-pratiques
330,Intermarche,58,Super Sauvigny les Bois,Super_Sauvigny_les_Bois,58160 Sauvigny les Bois,Route de Nevers-Rn 81-58160 Sauvigny les Bois,46.940249,3.257975,https://www.intermarche.com/magasins/03333/sauvigny-les-bois-58160/infos-pratiques
331,Intermarche,58,Hyper Varennes Vauzelles,Hyper_Varennes_Vauzelles,58640 Varennes Vauzelles,Boulevard Camille Dagonneau-Rn 7-58640 Varennes Vauzelles,47.012534,3.15058,https://www.intermarche.com/magasins/02267/varennes-vauzelles-58640/infos-pratiques
332,Intermarche,71,Super Autun,Super_Autun,71400 Autun,Route de Château Chinon-ZAC de Bellevue-71400 Autun,46.967968,4.275849,https://www.intermarche.com/magasins/01700/autun-71400/infos-pratiques
333,Intermarche,71,Super Bourbon Lancy,Super_Bourbon_Lancy,71140 Bourbon Lancy,6 route de Digoin-Les Alouettes-71140 Bourbon Lancy,46.627844,3.736111,https://www.intermarche.com/magasins/07219/bourbon-lancy-71140/infos-pratiques
334,Intermarche,71,Super Chagny,Super_Chagny,71150 Chagny,Rue de Wissen-71150 Chagny,46.901602,4.761381,https://www.intermarche.com/magasins/07115/chagny-71150/infos-pratiques
335,Intermarche,71,Super Chalon-sur-Sâone,Super_Chalon-sur-Saone,71100 Chalon-sur-Sâone,70 rue des Lieutenants Chauveau-71100 Chalon-sur-Sâone,46.775714,4.837947,https://www.intermarche.com/magasins/07536/chalon-sur-saone-71100/infos-pratiques
336,Intermarche,71,Hyper Chalon-sur-Saône,Hyper_Chalon-sur-Saone,71100 Chalon-sur-Saône,Avenue de l'Europe-Centre Commerciale La Thalie-71100 Chalon-sur-Saône,46.796226,4.834843,https://www.intermarche.com/magasins/10685/chalon-sur-saone-71100/infos-pratiques
337,Intermarche,71,Super Charolles,Super_Charolles,71120 Charolles,"4 bis, Avenue du 8 Juin 1944-71120 Charolles",46.436924,4.268225,https://www.intermarche.com/magasins/07128/charolles-71120/infos-pratiques
338,Intermarche,71,Super Chauffailles,Super_Chauffailles,71170 Chauffailles,ZI Les Etangs-71170 Chauffailles,46.206986,4.311151,https://www.intermarche.com/magasins/07183/chauffailles-71170/infos-pratiques
339,Intermarche,71,Contact Cuisery,Contact_Cuisery,71290 Cuisery,20 Rue du Bois Bernoux-71290 Cuisery,46.558049,4.984242,https://www.intermarche.com/magasins/09740/cuisery-71290/infos-pratiques
340,Intermarche,71,Super Digoin,Super_Digoin,71160 Digoin,Avenue de l'Europe-ZAC des Charmes Centre Commercial Ligerval-71160 Digoin,46.474259,4.006328,https://www.intermarche.com/magasins/07684/digoin-71160/infos-pratiques
341,Intermarche,71,Super Gourdon,Super_Gourdon,71300 Gourdon,Beauregard-71300 Gourdon,46.66296,4.394081,https://www.intermarche.com/magasins/07162/gourdon-71300/infos-pratiques
342,Intermarche,71,Super Gueugnon,Super_Gueugnon,71130 Gueugnon,Route de Toulon sur Arroux-71130 Gueugnon,46.604455,4.070241,https://www.intermarche.com/magasins/07552/gueugnon-71130/infos-pratiques
343,Intermarche,71,Super Le Creusot,Super_Le_Creusot,71200 Le Creusot,3 Rue de Pologne-71200 Le Creusot,46.793108,4.445927,https://www.intermarche.com/magasins/07549/le-creusot-71200/infos-pratiques
344,Intermarche,71,Super Mâcon,Super_Macon,71000 Mâcon,rue Frédéric Mistral-71000 Mâcon,46.288189,4.807559,https://www.intermarche.com/magasins/07056/macon-71000/infos-pratiques
345,Intermarche,71,Super Montceau-les-Mines,Super_Montceau-les-Mines,71300 Montceau-les-Mines,61 Rue de Lille-Bois Du Verne-71300 Montceau-les-Mines,46.690883,4.357284,https://www.intermarche.com/magasins/01051/montceau-les-mines-71300/infos-pratiques
346,Intermarche,71,Super Montchanin,Super_Montchanin,71210 Montchanin,Avenue des Mouettes-71210 Montchanin,46.738772,4.474032,https://www.intermarche.com/magasins/04852/montchanin-71210/infos-pratiques
347,Intermarche,71,Super Ouroux-sur-Sâone,Super_Ouroux-sur-Saone,71370 Ouroux-sur-Sâone,Rue du Pranet-ZA du Velard-71370 Ouroux-sur-Sâone,46.705314,4.968395,https://www.intermarche.com/magasins/07134/ouroux-sur-saone-71370/infos-pratiques
348,Intermarche,71,Super Peronne,Super_Peronne,71260 Peronne,Aux teppes soldat-71260 Peronne,46.436703,4.801122,https://www.intermarche.com/magasins/07858/peronne-71260/infos-pratiques
349,Intermarche,71,Super Pierre-de-Bresse,Super_Pierre-de-Bresse,71270 Pierre-de-Bresse,98 Route de Chalon-71270 Pierre-de-Bresse,46.882792,5.247743,https://www.intermarche.com/magasins/50366/pierre-de-bresse-71270/infos-pratiques
350,Intermarche,71,Contact Romanèche-Thorins,Contact_Romaneche-Thorins,71570 Romanèche-Thorins,51 Rue des Etelles La Maison Blanche-Rn 6-71570 Romanèche-Thorins,46.185071,4.749158,https://www.intermarche.com/magasins/50161/romaneche-thorins-71570/infos-pratiques
351,Intermarche,71,Contact Saint Désert,Contact_Saint_Desert,71390 Saint Désert,Rd 981 Impasse La Condemaine-71390 Saint Désert,46.752285,4.718349,https://www.intermarche.com/magasins/08188/saint-desert-71390/infos-pratiques
352,Intermarche,71,Contact Saint Loup Géanges,Contact_Saint_Loup_Geanges,71350 Saint Loup Géanges,ZAC des plantes-71350 Saint Loup Géanges,46.94742,4.90814,https://www.intermarche.com/magasins/07956/saint-loup-geanges-71350/infos-pratiques
353,Intermarche,71,Contact Saint Martin Belle Roche,Contact_Saint_Martin_Belle_Roche,71118 Saint Martin Belle Roche,Lieu dit Chassagne-71118 Saint Martin Belle Roche,46.382318,4.85076,https://www.intermarche.com/magasins/05830/saint-martin-belle-roche-71118/infos-pratiques
354,Intermarche,71,Super Saint-Vallier,Super_Saint-Vallier,71230 Saint-Vallier,ZI de la Saule-Rue de la Branche-71230 Saint-Vallier,46.64773,4.34145,https://www.intermarche.com/magasins/07640/saint-vallier-71230/infos-pratiques
355,Intermarche,71,Super Varennes Sous Dun,Super_Varennes_Sous_Dun,71800 Varennes Sous Dun,3 Route Du Montillet-Cd 987-71800 Varennes Sous Dun,46.289222,4.321449,https://www.intermarche.com/magasins/07705/varennes-sous-dun-71800/infos-pratiques
356,Intermarche,90,Super Delle,Super_Delle,90100 Delle,37 Faubourg de Belfort-90100 Delle,47.512529,7.000572,https://www.intermarche.com/magasins/03568/delle-90100/infos-pratiques
357,Intermarche,90,Super Giromagny,Super_Giromagny,90200 Giromagny,ZAC du Mont Jean-90200 Giromagny,47.748369,6.828468,https://www.intermarche.com/magasins/50198/giromagny-90200/infos-pratiques
358,Intermarche,90,Super Trevenans,Super_Trevenans,90400 Trevenans,8 Route de Vourvenans-90400 Trevenans,47.563814,6.858108,https://www.intermarche.com/magasins/50348/trevenans-90400/infos-pratiques
359,Intermarche,89,Super Chablis,Super_Chablis,89800 Chablis,Route d'Auxerre-89800 Chablis,47.816901,3.788245,https://www.intermarche.com/magasins/06655/chablis-89800/infos-pratiques
360,Intermarche,89,Super Charny Orée De Puisaye,Super_Charny_Oree_De_Puisaye,89120 Charny Orée De Puisaye,86 Route De Saint Martin Sur Ouanne-89120 Charny Orée De Puisaye,47.87604,3.095804,https://www.intermarche.com/magasins/06129/charny-oree-de-puisaye-89120/infos-pratiques
361,Intermarche,89,Super Cheroy,Super_Cheroy,89690 Cheroy,Route des Bedets-89690 Cheroy,48.199356,2.99268,https://www.intermarche.com/magasins/50297/cheroy-89690/infos-pratiques
362,Intermarche,89,Hyper Joigny,Hyper_Joigny,89300 Joigny,Rue des Entrepreneurs-Parc commercial de la petite ile-89300 Joigny,47.978721,3.377223,https://www.intermarche.com/magasins/01870/joigny-89300/infos-pratiques
363,Intermarche,89,Super Saint-Florentin,Super_Saint-Florentin,89600 Saint-Florentin,Rue d'Avrolles-Cd 905-89600 Saint-Florentin,47.999629,3.71516,https://www.intermarche.com/magasins/06246/saint-florentin-89600/infos-pratiques
364,Intermarche,89,Super Saint-Julien du Sault,Super_Saint-Julien_du_Sault,89330 Saint-Julien du Sault,Route de Villeneuve sur Yonne-ZI des Longues raies-89330 Saint-Julien du Sault,48.035397,3.306992,https://www.intermarche.com/magasins/06161/saint-julien-du-sault-89330/infos-pratiques
365,Intermarche,89,Super Toucy,Super_Toucy,89130 Toucy,Route d'Avallon-89130 Toucy,47.728651,3.307893,https://www.intermarche.com/magasins/06146/toucy-89130/infos-pratiques
366,Intermarche,89,Super Villeneuve la Guyard,Super_Villeneuve_la_Guyard,89340 Villeneuve la Guyard,1 rue Guillaume Des Barres-89340 Villeneuve la Guyard,48.334838,3.066699,https://www.intermarche.com/magasins/06141/villeneuve-la-guyard-89340/infos-pratiques
367,Intermarche,22,Super Begard,Super_Begard,22140 Begard,Route De Guingamp-22140 Begard,48.623412,-3.29604,https://www.intermarche.com/magasins/06900/begard-22140/infos-pratiques
368,Intermarche,22,Super Broons,Super_Broons,22250 Broons,ZA du chalet-22250 Broons,48.32455,-2.25121,https://www.intermarche.com/magasins/50304/broons-22250/infos-pratiques
369,Intermarche,22,Super Callac,Super_Callac,22160 Callac,Rue de Kerbuannec-22160 Callac,48.407091,-3.433399,https://www.intermarche.com/magasins/04225/callac-22160/infos-pratiques
370,Intermarche,22,Super Caulnes,Super_Caulnes,22350 Caulnes,4 Rue du 19 Mars 1962-22350 Caulnes,48.290832,-2.152913,https://www.intermarche.com/magasins/50341/caulnes-22350/infos-pratiques
371,Intermarche,22,Super Guingamp,Super_Guingamp,22200 Guingamp,32 Avenue Du Goëlo-Espace Commercial De Saint Agathon-22200 Guingamp,48.560477,-3.125224,https://www.intermarche.com/magasins/04114/guingamp-22200/infos-pratiques
372,Intermarche,22,Hyper Lamballe,Hyper_Lamballe,22400 Lamballe,25 avenue Georges Clemenceau-22400 Lamballe,48.462711,-2.504205,https://www.intermarche.com/magasins/01661/lamballe-22400/infos-pratiques
373,Intermarche,22,Super Lannion,Super_Lannion,22300 Lannion,Route de Tréguier-Centre Commercial Le Lion de Saint-Marc-22300 Lannion,48.7328,-3.437365,https://www.intermarche.com/magasins/04554/lannion-22300/infos-pratiques
374,Intermarche,22,Contact Lannion,Contact_Lannion,22300 Lannion,Route de Trebeurden-ZAC de Kerligonan-22300 Lannion,48.749642,-3.492738,https://www.intermarche.com/magasins/02242/lannion-22300/infos-pratiques
375,Intermarche,22,Contact Louargat,Contact_Louargat,22540 Louargat,Chemin de l'oratoire-22540 Louargat,48.569047,-3.336561,https://www.intermarche.com/magasins/06303/louargat-22540/infos-pratiques
376,Intermarche,22,Contact Loudeac,Contact_Loudeac,22600 Loudeac,21 Boulevard de la Gare-22600 Loudeac,48.177827,-2.759957,https://www.intermarche.com/magasins/07001/loudeac-22600/infos-pratiques
377,Intermarche,22,Super Minihy-Tréguier,Super_Minihy-Treguier,22220 Minihy-Tréguier,ZAC de Kerfolic-22220 Minihy-Tréguier,48.776595,-3.244713,https://www.intermarche.com/magasins/04743/minihy-treguier-22220/infos-pratiques
378,Intermarche,22,Contact Mur De Bretagne,Contact_Mur_De_Bretagne,22530 Mur De Bretagne,5 Route De Pontivy-22530 Mur De Bretagne,48.198741,-2.987309,https://www.intermarche.com/magasins/01714/mur-de-bretagne-22530/infos-pratiques
379,Intermarche,22,Contact Paimpol,Contact_Paimpol,22500 Paimpol,56 avenue du Général de Gaulle-22500 Paimpol,48.776596,-3.048185,https://www.intermarche.com/magasins/04324/paimpol-22500/infos-pratiques
380,Intermarche,22,Super Plaintel,Super_Plaintel,22940 Plaintel,849 rue Ville Gourelle-22940 Plaintel,48.417261,-2.82092,https://www.intermarche.com/magasins/04824/plaintel-22940/infos-pratiques
381,Intermarche,22,Contact Plelan le Petit,Contact_Plelan_le_Petit,22980 Plelan le Petit,8 Rue des rouairies-22980 Plelan le Petit,48.430542,-2.216825,https://www.intermarche.com/magasins/07655/plelan-le-petit-22980/infos-pratiques
382,Intermarche,22,Contact Plénée-Jugon,Contact_Plenee-Jugon,22640 Plénée-Jugon,13 Rue de la République-22640 Plénée-Jugon,48.367961,-2.395646,https://www.intermarche.com/magasins/50296/plenee-jugon-22640/infos-pratiques
383,Intermarche,22,Contact Plouaret,Contact_Plouaret,22420 Plouaret,Rue du Général de Gaulle-22420 Plouaret,48.609029,-3.477838,https://www.intermarche.com/magasins/10677/plouaret-22420/infos-pratiques
384,Intermarche,22,Super Ploubezre,Super_Ploubezre,22300 Ploubezre,ZAC de coatillau-22300 Ploubezre,48.712407,-3.450428,https://www.intermarche.com/magasins/08054/ploubezre-22300/infos-pratiques
385,Intermarche,22,Super Plouézec,Super_Plouezec,22470 Plouézec,Route de Saint-Brieuc-19-22470 Plouézec,48.74613,-2.98281,https://www.intermarche.com/magasins/04020/plouezec-22470/infos-pratiques
386,Intermarche,22,Contact Plouguenast,Contact_Plouguenast,22150 Plouguenast,Rue du Trebuchon-22150 Plouguenast,48.281144,-2.700963,https://www.intermarche.com/magasins/50326/plouguenast-22150/infos-pratiques
387,Intermarche,22,Super Ploulec'h,Super_Ploulec_h,22300 Ploulec'h,Zone Commerciale De Bel Air-Route de Morlaix-22300 Ploulec'h,48.720301,-3.482924,https://www.intermarche.com/magasins/04152/ploulec'h-22300/infos-pratiques
388,Intermarche,22,Super Pontrieux,Super_Pontrieux,22260 Pontrieux,33 rue de l'Eperonnerie-Route de Plouëc-22260 Pontrieux,48.696252,-3.165622,https://www.intermarche.com/magasins/04615/pontrieux-22260/infos-pratiques
389,Intermarche,22,Super Pordic,Super_Pordic,22590 Pordic,Zone de Keribet-22590 Pordic,48.563449,-2.817095,https://www.intermarche.com/magasins/04218/pordic-22590/infos-pratiques
390,Intermarche,22,Super Quessoy,Super_Quessoy,22120 Quessoy,Rue de l'Argentaie-22120 Quessoy,48.422252,-2.656438,https://www.intermarche.com/magasins/05289/quessoy-22120/infos-pratiques
391,Intermarche,22,Hyper Rostrenen,Hyper_Rostrenen,22110 Rostrenen,Prat Stangorin-ZA Goasnel - Centre commercial Cap Vert-22110 Rostrenen,48.243139,-3.315253,https://www.intermarche.com/magasins/04271/rostrenen-22110/infos-pratiques
392,Intermarche,22,Super Saint-Quay Perros,Super_Saint-Quay_Perros,22700 Saint-Quay Perros,Kerliviec-Axe Lannion Perros Guirec-22700 Saint-Quay Perros,48.786778,-3.449192,https://www.intermarche.com/magasins/04142/saint-quay-perros-22700/infos-pratiques
393,Intermarche,22,Super Taden,Super_Taden,22100 Taden,Zone Dombriand-22100 Taden,48.478643,-2.041569,https://www.intermarche.com/magasins/04211/taden-22100/infos-pratiques
394,Intermarche,22,Super Trebeurden,Super_Trebeurden,22560 Trebeurden,50 rue des Plages-22560 Trebeurden,48.769633,-3.569527,https://www.intermarche.com/magasins/04400/trebeurden-22560/infos-pratiques
395,Intermarche,22,Super Trégueux,Super_Tregueux,22950 Trégueux,15 rue Jean Monnet-Rond-point de Brézillet-22950 Trégueux,48.490324,-2.76451,https://www.intermarche.com/magasins/04154/tregueux-22950/infos-pratiques
396,Intermarche,22,Super Trémuson,Super_Tremuson,22440 Trémuson,Rue Simone de Beauvoir-22440 Trémuson,48.524215,-2.852293,https://www.intermarche.com/magasins/05788/tremuson-22440/infos-pratiques
397,Intermarche,29,Super Bannalec,Super_Bannalec,29380 Bannalec,Rue Eugène Lorec-29380 Bannalec,47.926838,-3.699878,https://www.intermarche.com/magasins/04823/bannalec-29380/infos-pratiques
398,Intermarche,29,Super Brest,Super_Brest,29200 Brest,118 route de Quimper-29200 Brest,48.401343,-4.446645,https://www.intermarche.com/magasins/01354/brest-29200/infos-pratiques
399,Intermarche,29,Express Brest,Express_Brest,29200 Brest,50 Rue Émile Zola-29200 Brest,48.387218,-4.487894,https://www.intermarche.com/magasins/09641/brest-29200/infos-pratiques
400,Intermarche,29,Super Briec,Super_Briec,29510 Briec,Lannechuen-29510 Briec,48.100797,-4.012531,https://www.intermarche.com/magasins/04810/briec-29510/infos-pratiques
401,Intermarche,29,Super Carhaix Plouguer,Super_Carhaix_Plouguer,29270 Carhaix Plouguer,2 rue Charles Le Goff-29270 Carhaix Plouguer,48.274749,-3.581324,https://www.intermarche.com/magasins/04643/carhaix-plouguer-29270/infos-pratiques
402,Intermarche,29,Super Chateaulin,Super_Chateaulin,29150 Chateaulin,Grand Rue-Supermarché-29150 Chateaulin,48.196503,-4.084918,https://www.intermarche.com/magasins/04253/chateaulin-29150/infos-pratiques
403,Intermarche,29,Super Concarneau,Super_Concarneau,29900 Concarneau,Route de Tregunc-Centre Commercial des Korrigans-29900 Concarneau,47.86942,-3.894734,https://www.intermarche.com/magasins/01899/concarneau-29900/infos-pratiques
404,Intermarche,29,Hyper Douarnenez,Hyper_Douarnenez,29100 Douarnenez,Route de Drevers-Centre Commercial le Drevers-29100 Douarnenez,48.07514,-4.307542,https://www.intermarche.com/magasins/04705/douarnenez-29100/infos-pratiques
405,Intermarche,29,Contact Huelgoat,Contact_Huelgoat,29690 Huelgoat,Route de Berrien-29690 Huelgoat,48.368339,-3.748988,https://www.intermarche.com/magasins/50129/huelgoat-29690/infos-pratiques
406,Intermarche,29,Super Landerneau,Super_Landerneau,29800 Landerneau,37 rue Hervé de Guébriant-ZI du Bois Noir-29800 Landerneau,48.448739,-4.26335,https://www.intermarche.com/magasins/04742/landerneau-29800/infos-pratiques
407,Intermarche,29,Hyper Mellac,Hyper_Mellac,29300 Mellac,Pole D'act Kervidanou 3-Kervidanou-29300 Mellac,47.869618,-3.586907,https://www.intermarche.com/magasins/04178/mellac-29300/infos-pratiques
408,Intermarche,29,Super Moelan-sur-Mer,Super_Moelan-sur-Mer,29350 Moelan-sur-Mer,ZAC de Kerguevellic-29350 Moelan-sur-Mer,47.812267,-3.629975,https://www.intermarche.com/magasins/04419/moelan-sur-mer-29350/infos-pratiques
409,Intermarche,29,Contact Morlaix,Contact_Morlaix,29600 Morlaix,Rue de Brest-29600 Morlaix,48.575266,-3.829744,https://www.intermarche.com/magasins/04912/morlaix-29600/infos-pratiques
410,Intermarche,29,Super Nevez,Super_Nevez,29920 Nevez,30 Rue de l'Atlantique-29920 Nevez,47.823945,-3.794494,https://www.intermarche.com/magasins/50268/nevez-29920/infos-pratiques
411,Intermarche,29,Super Plabennec,Super_Plabennec,29860 Plabennec,Route de Brest-29860 Plabennec,48.486711,-4.432629,https://www.intermarche.com/magasins/04261/plabennec-29860/infos-pratiques
412,Intermarche,29,Super Pleyben,Super_Pleyben,29190 Pleyben,Zone artisanale du Drevers-29190 Pleyben,48.220305,-3.978113,https://www.intermarche.com/magasins/01336/pleyben-29190/infos-pratiques
413,Intermarche,29,Super Plomeur,Super_Plomeur,29120 Plomeur,Pendreff-29120 Plomeur,47.820352,-4.288187,https://www.intermarche.com/magasins/04127/plomeur-29120/infos-pratiques
414,Intermarche,29,Super Plomodiern,Super_Plomodiern,29550 Plomodiern,8 rue de la Gare-29550 Plomodiern,48.181847,-4.229461,https://www.intermarche.com/magasins/50169/plomodiern-29550/infos-pratiques
415,Intermarche,29,Contact Ploneis,Contact_Ploneis,29710 Ploneis,3 Rue Laennec-29710 Ploneis,48.013863,-4.204534,https://www.intermarche.com/magasins/05831/ploneis-29710/infos-pratiques
416,Intermarche,29,Super Plouescat,Super_Plouescat,29430 Plouescat,Boulevard de l'Europe-Lieu dit Kerchapalain-29430 Plouescat,48.651298,-4.185297,https://www.intermarche.com/magasins/04121/plouescat-29430/infos-pratiques
417,Intermarche,29,Super Plougonvelin,Super_Plougonvelin,29217 Plougonvelin,Rue du Stade-29217 Plougonvelin,48.342245,-4.722651,https://www.intermarche.com/magasins/04269/plougonvelin-29217/infos-pratiques
418,Intermarche,29,Super Plouguerneau,Super_Plouguerneau,29880 Plouguerneau,1 Place du Fournil-29880 Plouguerneau,48.605927,-4.505473,https://www.intermarche.com/magasins/04151/plouguerneau-29880/infos-pratiques
419,Intermarche,29,Super Plourin Les Morlaix,Super_Plourin_Les_Morlaix,29600 Plourin Les Morlaix,Plateau Saint Fiacre-29600 Plourin Les Morlaix,48.56112,-3.82502,https://www.intermarche.com/magasins/04190/plourin-les-morlaix-29600/infos-pratiques
420,Intermarche,29,Super Plouzane,Super_Plouzane,29280 Plouzane,Centre Commercial De Castel Nevez-29280 Plouzane,48.378488,-4.600997,https://www.intermarche.com/magasins/02944/plouzane-29280/infos-pratiques
421,Intermarche,29,Contact Plouzevede,Contact_Plouzevede,29440 Plouzevede,Route de Lesneven Berven-29440 Plouzevede,48.601225,-4.112017,https://www.intermarche.com/magasins/50247/plouzevede-29440/infos-pratiques
422,Intermarche,29,Super Plozevet,Super_Plozevet,29710 Plozevet,Lieu-dit Kerfily Le Bourg-29710 Plozevet,47.987098,-4.42187,https://www.intermarche.com/magasins/50215/plozevet-29710/infos-pratiques
423,Intermarche,29,Super Pluguffan,Super_Pluguffan,29700 Pluguffan,30 rue de Pouldreuzic-29700 Pluguffan,47.978915,-4.18293,https://www.intermarche.com/magasins/50282/pluguffan-29700/infos-pratiques
424,Intermarche,29,Contact Pont Aven,Contact_Pont_Aven,29930 Pont Aven,Rue Emile Bernard-29930 Pont Aven,47.85831,-3.75208,https://www.intermarche.com/magasins/01324/pont-aven-29930/infos-pratiques
425,Intermarche,29,Contact Primelin,Contact_Primelin,29770 Primelin,Le Loch-29770 Primelin,48.029844,-4.637851,https://www.intermarche.com/magasins/04110/primelin-29770/infos-pratiques
426,Intermarche,29,Super Quimperle,Super_Quimperle,29300 Quimperle,7 Place Jean Jaurès-29300 Quimperle,47.872461,-3.552382,https://www.intermarche.com/magasins/04201/quimperle-29300/infos-pratiques
427,Intermarche,29,Super Rosporden,Super_Rosporden,29140 Rosporden,Rue Ernest Ronan-29140 Rosporden,47.961241,-3.834335,https://www.intermarche.com/magasins/06997/rosporden-29140/infos-pratiques
428,Intermarche,29,Contact Saint-Évarzec,Contact_Saint-Evarzec,29170 Saint-Évarzec,Rue d'Armor-29170 Saint-Évarzec,47.935532,-4.02141,https://www.intermarche.com/magasins/02256/saint-evarzec-29170/infos-pratiques
429,Intermarche,29,Contact Saint Martin Des Champs,Contact_Saint_Martin_Des_Champs,29600 Saint Martin Des Champs,17 Rue Jean Jaurès-29600 Saint Martin Des Champs,48.576621,-3.839175,https://www.intermarche.com/magasins/05868/saint-martin-des-champs-29600/infos-pratiques
430,Intermarche,35,Super Argentré-du-Plessis,Super_Argentre-du-Plessis,35370 Argentré-du-Plessis,8 Rue des Sports-35370 Argentré-du-Plessis,48.058834,-1.152634,https://www.intermarche.com/magasins/04230/argentre-du-plessis-35370/infos-pratiques
431,Intermarche,35,Super Bain-de-bretagne,Super_Bain-de-bretagne,35470 Bain-de-bretagne,Le Chene vert-35470 Bain-de-bretagne,47.844847,-1.687882,https://www.intermarche.com/magasins/07158/bain-de-bretagne-35470/infos-pratiques
432,Intermarche,35,Super Bruz,Super_Bruz,35170 Bruz,2 Place du Vert Buisson-Centre Commercial Cap Vert-35170 Bruz,48.028596,-1.762205,https://www.intermarche.com/magasins/05052/bruz-35170/infos-pratiques
433,Intermarche,35,Super Chantepie,Super_Chantepie,35135 Chantepie,Rue du Loroux-Place des Marelles-35135 Chantepie,48.087552,-1.622369,https://www.intermarche.com/magasins/02260/chantepie-35135/infos-pratiques
434,Intermarche,35,Super Combourg,Super_Combourg,35270 Combourg,14 rue des coutures-Parc d'activités du Moulin Madame-35270 Combourg,48.417431,-1.750517,https://www.intermarche.com/magasins/04255/combourg-35270/infos-pratiques
435,Intermarche,35,Express Dinard,Express_Dinard,35800 Dinard,26 Boulevard Féart-35800 Dinard,48.631732,-2.055248,https://www.intermarche.com/magasins/04169/dinard-35800/infos-pratiques
436,Intermarche,35,Contact Dol-de-Bretagne,Contact_Dol-de-Bretagne,35120 Dol-de-Bretagne,25 Rue des Carmes-35120 Dol-de-Bretagne,48.551992,-1.750624,https://www.intermarche.com/magasins/04160/dol-de-bretagne-35120/infos-pratiques
437,Intermarche,35,Super Domloup,Super_Domloup,35410 Domloup,1 Rue du Gifard-35410 Domloup,48.05635,-1.525762,https://www.intermarche.com/magasins/04752/domloup-35410/infos-pratiques
438,Intermarche,35,Super Etrelles,Super_Etrelles,35370 Etrelles,12 ZA Piquet Ouest-35370 Etrelles,48.068768,-1.198613,https://www.intermarche.com/magasins/04230_1/etrelles-35370/infos-pratiques
439,Intermarche,35,Super Fougères,Super_Fougeres,35300 Fougères,Boulevard Saint-Germain-35300 Fougères,48.363192,-1.20855,https://www.intermarche.com/magasins/04759/fougeres-35300/infos-pratiques
440,Intermarche,35,Contact Goven,Contact_Goven,35580 Goven,Les Jardins du Perray-35580 Goven,48.004934,-1.850746,https://www.intermarche.com/magasins/03486/goven-35580/infos-pratiques
441,Intermarche,35,Super Janze,Super_Janze,35150 Janze,Route de Bain de Bretagne-35150 Janze,47.954126,-1.504447,https://www.intermarche.com/magasins/04676/janze-35150/infos-pratiques
442,Intermarche,35,Contact La Bouexiere,Contact_La_Bouexiere,35340 La Bouexiere,46 rue de la Forêt-35340 La Bouexiere,48.180011,-1.437846,https://www.intermarche.com/magasins/50287/la-bouexiere-35340/infos-pratiques
443,Intermarche,35,Super La Guerche de Bretagne,Super_La_Guerche_de_Bretagne,35130 La Guerche de Bretagne,Route de Vitré-35130 La Guerche de Bretagne,47.944503,-1.229602,https://www.intermarche.com/magasins/04260/la-guerche-de-bretagne-35130/infos-pratiques
444,Intermarche,35,Super La Mézière,Super_La_Meziere,35520 La Mézière,ZA Beauséjour-35520 La Mézière,48.213921,-1.743382,https://www.intermarche.com/magasins/06333/la-meziere-35520/infos-pratiques
445,Intermarche,35,Super Liffré,Super_Liffre,35340 Liffré,Route d'Ercé-près-Liffré-Centre Commercial Beaugée 2-35340 Liffré,48.224589,-1.500492,https://www.intermarche.com/magasins/05669/liffre-35340/infos-pratiques
446,Intermarche,35,Contact Martigné Ferchaud,Contact_Martigne_Ferchaud,35640 Martigné Ferchaud,ZA du Ronzeray-Rue Irène Joliot Curie-35640 Martigné Ferchaud,47.820388,-1.31866,https://www.intermarche.com/magasins/50319/martigne-ferchaud-35640/infos-pratiques
447,Intermarche,35,Contact Mernel,Contact_Mernel,35330 Mernel,2 rue du querpon-35330 Mernel,47.894238,-1.990122,https://www.intermarche.com/magasins/50160/mernel-35330/infos-pratiques
448,Intermarche,35,Super Montauban de Bretagne,Super_Montauban_de_Bretagne,35360 Montauban de Bretagne,58 rue de Rennes-35360 Montauban de Bretagne,48.196818,-2.039494,https://www.intermarche.com/magasins/04216/montauban-de-bretagne-35360/infos-pratiques
449,Intermarche,35,Super Orgeres,Super_Orgeres,35230 Orgeres,6 Avenue De L'alliance-35230 Orgeres,48.01472,-1.662836,https://www.intermarche.com/magasins/06886/orgeres-35230/infos-pratiques
450,Intermarche,35,Super Pleine Fougeres,Super_Pleine_Fougeres,35610 Pleine Fougeres,Ville Chérel-35610 Pleine Fougeres,48.548,-1.537044,https://www.intermarche.com/magasins/04596/pleine-fougeres-35610/infos-pratiques
451,Intermarche,35,Hyper Pleurtuit,Hyper_Pleurtuit,35730 Pleurtuit,5 Rue du Cap de Bonne Espérance-35730 Pleurtuit,48.610097,-2.062345,https://www.intermarche.com/magasins/10007/pleurtuit-35730/infos-pratiques
452,Intermarche,35,Hyper Redon,Hyper_Redon,35600 Redon,6 Rue Louis Guilloux-35600 Redon,47.673797,-2.064078,https://www.intermarche.com/magasins/04391/redon-35600/infos-pratiques
453,Intermarche,35,Retrait la poste Rennes,Retrait_la_poste_Rennes,35000 Rennes,27 Boulevard Du Colombier-35000 Rennes,48.102764,-1.678352,https://www.intermarche.com/magasins/06994_1/rennes-35000/infos-pratiques
454,Intermarche,35,Super Rennes,Super_Rennes,35200 Rennes,2 Rue de Suisse-35200 Rennes,48.086535,-1.667807,https://www.intermarche.com/magasins/06625/rennes-35200/infos-pratiques
455,Intermarche,35,Express Rennes,Express_Rennes,35000 Rennes,3 Avenue Jean Janvier-35000 Rennes,48.109556,-1.673892,https://www.intermarche.com/magasins/08177/rennes-35000/infos-pratiques
456,Intermarche,35,Hyper Rennes,Hyper_Rennes,35700 Rennes,8 Allée Morvan Lebesque-Centre Commercial Les Longs Champs-35700 Rennes,48.13102,-1.63292,https://www.intermarche.com/magasins/08556/rennes-35700/infos-pratiques
457,Intermarche,35,Super Rennes,Super_Rennes,35700 Rennes,Place Lucie Et Raymond Aubrac-35700 Rennes,48.130609,-1.65723,https://www.intermarche.com/magasins/06994/rennes-35700/infos-pratiques
458,Intermarche,35,Super Saint Malo,Super_Saint_Malo,35400 Saint Malo,20 Avenue Général De Gaulle-Centre Commercial La Découverte De Saint Malo-35400 Saint Malo,48.636019,-1.990678,https://www.intermarche.com/magasins/04658/saint-malo-35400/infos-pratiques
459,Intermarche,35,Super Saint Malo,Super_Saint_Malo,35400 Saint Malo,53 Avenue Aristide Briand-35400 Saint Malo,48.648753,-1.996787,https://www.intermarche.com/magasins/04274/saint-malo-35400/infos-pratiques
460,Intermarche,35,Super Saint-Meen le Grand,Super_Saint-Meen_le_Grand,35290 Saint-Meen le Grand,ZA Le Maupas-35290 Saint-Meen le Grand,48.186726,-2.176033,https://www.intermarche.com/magasins/04788/saint-meen-le-grand-35290/infos-pratiques
461,Intermarche,35,Super Saint Meloir des Ondes,Super_Saint_Meloir_des_Ondes,35350 Saint Meloir des Ondes,Le portail-35350 Saint Meloir des Ondes,48.654071,-1.874873,https://www.intermarche.com/magasins/05979/saint-meloir-des-ondes-35350/infos-pratiques
462,Intermarche,35,Super Vieux Vy sur Couesnon,Super_Vieux_Vy_sur_Couesnon,35490 Vieux Vy sur Couesnon,ZA la Croix Couverte-35490 Vieux Vy sur Couesnon,48.329564,-1.524417,https://www.intermarche.com/magasins/04968/vieux-vy-sur-couesnon-35490/infos-pratiques
463,Intermarche,35,Super Vitré,Super_Vitre,35500 Vitré,1 Rue De Domalain-Centre Commercial La Valière-35500 Vitré,48.108432,-1.21313,https://www.intermarche.com/magasins/08057/vitre-35500/infos-pratiques
