,supermarket,department,nom_drive,nom_driveUrl,city,adresse,latitude,longitude,lien_drive
0,Auchan,2,Auchan Drive St-quentin,Auchan_Drive_St-quentin,02100 Fayet,"Cc Quentin De La Tour , 02100 Fayet",49.858073,3.256202,https://www.auchan.fr/magasins/drive/st-quentin/s-985
1,Auchan,2,Auchan Drive Hirson,Auchan_Drive_Hirson,02500 Hirson,"Avenue De Verdun , 02500 Hirson",49.91261,4.09081,https://www.auchan.fr/magasins/drive/hirson/s-990
2,Auchan,2,Auchan Drive Viry Noureuil,Auchan_Drive_Viry_Noureuil,02300 Viry-noureuil,"Route Nationale 32 , 02300 Viry-noureuil",49.64375,3.25926,https://www.auchan.fr/magasins/drive/viry-noureuil/s-551
3,Auchan,3,Auchan Drive Montlucon Domérat,Auchan_Drive_Montlucon_Domerat,03410 Domerat,"Cc Terre Neuve, Route De Gueret , 03410 Domerat",46.33926,2.56796,https://www.auchan.fr/magasins/drive/montlucon-domerat/s-454
4,Auchan,5,Auchan Drive Gap,Auchan_Drive_Gap,05000 Gap,"9, Route De Barcelonette , 05000 Gap",44.54338,6.066433,https://www.auchan.fr/magasins/drive/gap/s-804
5,Auchan,6,Auchan Drive Grasse,Auchan_Drive_Grasse,06130 Grasse,"133, Route De Cannes , 06130 Grasse",43.636525,6.951308,https://www.auchan.fr/magasins/drive/grasse/s-537
6,Auchan,6,Auchan Drive La Trinité (nice Côte D'azur),Auchan_Drive_La_Trinite__nice_Cote_D_azur_,06340 La Trinité,"Route De Laghet , 06340 La Trinité",43.743623,7.320199,https://www.auchan.fr/magasins/drive/la-trinite-nice-cote-d-azur/s-869
7,Auchan,7,Auchan Drive Guilherand-granges (valence),Auchan_Drive_Guilherand-granges__valence_,07500 Guilherand-granges,"Chemin Des Mulets , 07500 Guilherand-granges",44.924392,4.860182,https://www.auchan.fr/magasins/drive/guilherand-granges-valence/s-872
8,Auchan,13,Auchan Drive Aubagne-en-provence,Auchan_Drive_Aubagne-en-provence,13400 Aubagne,"Cc Auchan Barneoud , 13400 Aubagne",43.296324,5.59144,https://www.auchan.fr/magasins/drive/aubagne-en-provence/s-874
9,Auchan,13,Auchan Drive Supermarché Marseille La Fourragère,Auchan_Drive_Supermarche_Marseille_La_Fourragere,13012 Marseille,"120 Rue Saint-jean Du Désert , 13012 Marseille",43.29547,5.43202,https://www.auchan.fr/magasins/drive/supermarche-marseille-la-fourragere/s-6215
10,Auchan,13,Auchan Drive Marseille,Auchan_Drive_Marseille,13010 Marseille,"Zac Saint-loup , 13010 Marseille",43.280931,5.42289,https://www.auchan.fr/magasins/drive/marseille/s-987
11,Auchan,13,Auchan Drive Marseille Les Caillols,Auchan_Drive_Marseille_Les_Caillols,13012 Marseille,"Centre Commercial Barnabé , 13012 Marseille",43.30471,5.4268,https://www.auchan.fr/magasins/drive/marseille-les-caillols/s-6019
12,Auchan,13,Auchan Drive Marseille Prado,Auchan_Drive_Marseille_Prado,13008 Marseille,"Cc Du Prado, Allee Ray-grassi , 13008 Marseille",43.270503,5.393469,https://www.auchan.fr/magasins/drive/marseille-prado/s-6049
13,Auchan,13,Auchan Drive Marseille Saint-lazare,Auchan_Drive_Marseille_Saint-lazare,13003 Marseille,"66, Boulevard De Strasbourg , 13003 Marseille",43.309223,5.3789382,https://www.auchan.fr/magasins/drive/marseille-saint-lazare/s-6026
14,Auchan,13,Auchan Drive Martigues,Auchan_Drive_Martigues,13500 Martigues,"Avenue Du Docteur Fleming , 13500 Martigues",43.424032,5.052981,https://www.auchan.fr/magasins/drive/martigues/s-982
15,Auchan,13,Auchan Drive Senas,Auchan_Drive_Senas,13560 Sénas,"Zac De La Capelette , 13560 Sénas",43.7418376,5.0865009,https://www.auchan.fr/magasins/drive/senas/s-6220
16,Auchan,14,Auchan Drive Fleury-sur-orne,Auchan_Drive_Fleury-sur-orne,14123 Fleury-sur-orne,"Route De Thury-harcourt , 14123 Fleury-sur-orne",49.156904,-0.367463,https://www.auchan.fr/magasins/drive/fleury-sur-orne/s-6059
17,Auchan,15,Auchan Drive Aurillac,Auchan_Drive_Aurillac,15000 Aurillac,"Rue De La Montade , 15000 Aurillac",44.915129,2.438369,https://www.auchan.fr/magasins/drive/aurillac/s-6063
18,Auchan,16,Auchan Drive Cognac,Auchan_Drive_Cognac,16100 Chateaubernard,"40, Rue Anisserie , 16100 Chateaubernard",45.683362,-0.307845,https://www.auchan.fr/magasins/drive/cognac/s-896
19,Auchan,16,Auchan Drive Angoulême,Auchan_Drive_Angouleme,16400 La Couronne,"Cc Auchan - Route De Bordeaux , 16400 La Couronne",45.615934,0.102293,https://www.auchan.fr/magasins/drive/angouleme/s-863
20,Auchan,18,Auchan Drive Bourges,Auchan_Drive_Bourges,18000 Bourges,"Zc Du Val D'auron - Rue Boisdé , 18000 Bourges",47.064218,2.397348,https://www.auchan.fr/magasins/drive/bourges/s-6100
21,Auchan,19,Auchan Drive Brive,Auchan_Drive_Brive,19100 Brive-la-gaillarde,"90 Avenue De L' Abbé Jean Alvitre , 19100 Brive-la-gaillarde",45.1531015,1.5035299,https://www.auchan.fr/magasins/drive/brive/s-6101
22,Auchan,21,Auchan Drive Châtillon-sur-seine,Auchan_Drive_Chatillon-sur-seine,21400 Châtillon-sur-seine,"Actipôle, Avenue Noël Navoizat , 21400 Châtillon-sur-seine",47.880100610766455,4.562671251934504,https://www.auchan.fr/magasins/drive/chatillon-sur-seine/s-192001
23,Auchan,21,Auchan Drive Semur-en-auxois,Auchan_Drive_Semur-en-auxois,21140 Semur-en-auxois,"Voie Georges Pompidou , 21140 Semur-en-auxois",47.48235,4.35218,https://www.auchan.fr/magasins/drive/semur-en-auxois/s-206001
24,Auchan,24,Auchan Drive Périgueux,Auchan_Drive_Perigueux,24650 Chancelade,"Impasse De La Baillardière , 24650 Chancelade",45.192644,0.654848,https://www.auchan.fr/magasins/drive/perigueux/s-885
25,Auchan,24,Auchan Drive Terrasson,Auchan_Drive_Terrasson,24120 Terrasson-lavilledieu,"Zone Les Fauries - Zi Du Coutal , 24120 Terrasson-lavilledieu",45.130117,1.326402,https://www.auchan.fr/magasins/drive/terrasson/s-6118
26,Auchan,27,Auchan Drive Gaillon,Auchan_Drive_Gaillon,27600 Gaillon,"Cc Gailloncel, Rue Jean Jaures , 27600 Gaillon",49.155585,1.34736,https://www.auchan.fr/magasins/drive/gaillon/s-6021
27,Auchan,27,Auchan Drive Gisors,Auchan_Drive_Gisors,27140 Gisors,"64, Rue De L'annonciade , 27140 Gisors",49.27841,1.7774,https://www.auchan.fr/magasins/drive/gisors/s-6062
28,Auchan,27,Auchan Drive Bosc-roger,Auchan_Drive_Bosc-roger,27670 Le Bosc-roger-en-roumois,"Route Nationale 313 - Ld Les Genêts , 27670 Le Bosc-roger-en-roumois",49.297003,0.910116,https://www.auchan.fr/magasins/drive/bosc-roger/s-6052
29,Auchan,28,Auchan Drive Auneau,Auchan_Drive_Auneau,28700 Auneau,"36 Rue Aristide Briand , 28700 Auneau",48.46532,1.75856,https://www.auchan.fr/magasins/drive/auneau/s-6146
30,Auchan,60,Auchan Drive Formerie,Auchan_Drive_Formerie,60220 Formerie,"Route D'haucourt , 60220 Formerie",49.6498518,1.7193141,https://www.auchan.fr/magasins/drive/formerie/s-6060
31,Auchan,20,Auchan Drive Ajaccio,Auchan_Drive_Ajaccio,20167 Sarrola-carcopino,"Lieu Dit Pernicaggio , 20167 Sarrola-carcopino",41.953473,8.7987448,https://www.auchan.fr/magasins/drive/ajaccio/s-225
32,Auchan,31,Auchan Drive Carbonne,Auchan_Drive_Carbonne,31390 Carbonne,"Route De L'arize , 31390 Carbonne",43.303681,1.220495,https://www.auchan.fr/magasins/drive/carbonne/s-6207
33,Auchan,31,Auchan Drive Launaguet,Auchan_Drive_Launaguet,31140 Launaguet,"Rue Benjamin Franklin , 31140 Launaguet",43.658871,1.457011,https://www.auchan.fr/magasins/drive/launaguet/s-6210
34,Auchan,31,Auchan Drive Toulouse,Auchan_Drive_Toulouse,31200 Toulouse,"Cc Espace Gramont , 31200 Toulouse",43.634061,1.483072,https://www.auchan.fr/magasins/drive/toulouse/s-954
35,Auchan,31,Auchan Drive Toulouse Pontjumeaux,Auchan_Drive_Toulouse_Pontjumeaux,31000 Toulouse,"Zac Des Ponts Jumeaux , 31000 Toulouse",43.6129438,1.4202083,https://www.auchan.fr/magasins/drive/toulouse-pontjumeaux/s-6007
36,Auchan,31,Auchan Drive Toulouse Michel-ange,Auchan_Drive_Toulouse_Michel-ange,31200 Toulouse,"100 rue Michel Ange , 31200 Toulouse",43.62707,1.44652,https://www.auchan.fr/magasins/drive/toulouse-michel-ange/s-6235
37,Auchan,31,Auchan Drive Tournefeuille,Auchan_Drive_Tournefeuille,31170 Tournefeuille,"5, Rue Bertrand Panouze , 31170 Tournefeuille",43.582902,1.34303,https://www.auchan.fr/magasins/drive/tournefeuille/s-6031
38,Auchan,33,Auchan Drive Artigues,Auchan_Drive_Artigues,33370 Artigues-près-bordeaux,"8 Avenue De La Prairie , 33370 Artigues-près-bordeaux",44.8670879,-0.4936639,https://www.auchan.fr/magasins/drive/artigues/s-6097
39,Auchan,33,Auchan Drive Biganos,Auchan_Drive_Biganos,33380 Biganos,"Cc Auchan Biganos , 33380 Biganos",44.633093,-0.96074,https://www.auchan.fr/magasins/drive/biganos/s-873
40,Auchan,33,Auchan Drive Supermarché Blanquefort,Auchan_Drive_Supermarche_Blanquefort,33290 Blanquefort,"102 Avenue Du 11 Novembre , 33290 Blanquefort",44.923,-0.624569,https://www.auchan.fr/magasins/drive/supermarche-blanquefort/s-6099
41,Auchan,33,Auchan Drive Bordeaux Le Lac,Auchan_Drive_Bordeaux_Le_Lac,33300 Bordeaux,"Le Lac - Rue Du Professeur Darget , 33300 Bordeaux",44.876767,-0.560968,https://www.auchan.fr/magasins/drive/bordeaux-le-lac/s-938
42,Auchan,33,Auchan Drive Cauderan,Auchan_Drive_Cauderan,33200 Bordeaux,"108 Rue Du Vélodrôme - Caudéran , 33200 Bordeaux",44.8583,-0.606693,https://www.auchan.fr/magasins/drive/cauderan/s-6041
43,Auchan,33,Auchan Drive Bordeaux Bouliac,Auchan_Drive_Bordeaux_Bouliac,33270 Bouliac,"Chemin Départemental 113 , 33270 Bouliac",44.813841,-0.524919,https://www.auchan.fr/magasins/drive/bordeaux-bouliac/s-958
44,Auchan,33,Auchan Drive Bègles,Auchan_Drive_Begles,33130 Bègles,"468 Route De Toulouse , 33130 Bègles",44.789991,-0.565125,https://www.auchan.fr/magasins/drive/begles/s-6032
45,Auchan,33,Auchan Drive Gradignan,Auchan_Drive_Gradignan,33170 Gradignan,"Cc Laurenzane , 33170 Gradignan",44.77304,-0.61038,https://www.auchan.fr/magasins/drive/gradignan/s-6105
46,Auchan,14,Auchan Drive Herouville Saint Clair,Auchan_Drive_Herouville_Saint_Clair,14200 Hérouville-saint-clair,"2 Avenue De Garbsen , 14200 Hérouville-saint-clair",49.21363,-0.34301,https://www.auchan.fr/magasins/drive/herouville-saint-clair/s-6173
47,Auchan,33,Auchan Drive Mondésir,Auchan_Drive_Mondesir,33700 Mérignac,"19, Avenue Du Maréchal Gallieni , 33700 Mérignac",44.837152,-0.617746,https://www.auchan.fr/magasins/drive/mondesir/s-6110
48,Auchan,33,Auchan Drive Talence-gallieni,Auchan_Drive_Talence-gallieni,33400 Talence,"114 Cours Du Maréchal Galliéni , 33400 Talence",44.822251,-0.593073,https://www.auchan.fr/magasins/drive/talence-gallieni/s-6117
49,Auchan,34,Auchan Drive Béziers,Auchan_Drive_Beziers,34500 Béziers,"20, Avenue De La Voie Domitienne , 34500 Béziers",43.346792,3.248609,https://www.auchan.fr/magasins/drive/beziers/s-880
50,Auchan,34,Auchan Drive Pérols - Montpellier,Auchan_Drive_Perols_-_Montpellier,34470 Pérols,"Cc Auchan Mediterranee , 34470 Pérols",43.57216,3.938792,https://www.auchan.fr/magasins/drive/perols-montpellier/s-881
51,Auchan,34,Auchan Drive Sète,Auchan_Drive_Sete,34200 Sète,"Avenue Gilbert Martelli , 34200 Sète",43.414806,3.716072,https://www.auchan.fr/magasins/drive/sete/s-543
52,Auchan,36,Auchan Drive Châteauroux,Auchan_Drive_Chateauroux,36330 Le Poinçonnet,"Cc Auchan Chateauroux , 36330 Le Poinçonnet",46.790599,1.736505,https://www.auchan.fr/magasins/drive/chateauroux/s-888
53,Auchan,37,Auchan Drive Chambray-lès-tours,Auchan_Drive_Chambray-les-tours,37170 Chambray-lès-tours,"Zac De La Vrillonnerie , 37170 Chambray-lès-tours",47.336729,0.704455,https://www.auchan.fr/magasins/drive/chambray-les-tours/s-890
54,Auchan,37,Auchan Drive Saint-cyr-sur-loire (tours),Auchan_Drive_Saint-cyr-sur-loire__tours_,37540 Saint-cyr-sur-loire,"Boulevard André-georges Voisin , 37540 Saint-cyr-sur-loire",47.425155,0.658836,https://www.auchan.fr/magasins/drive/saint-cyr-sur-loire-tours/s-871
55,Auchan,37,Auchan Drive Sorigny,Auchan_Drive_Sorigny,37250 Sorigny,"6, Rue Nationale , 37250 Sorigny",47.243492,0.695515,https://www.auchan.fr/magasins/drive/sorigny/s-6047
56,Auchan,37,Auchan Drive Tours Nord,Auchan_Drive_Tours_Nord,37000 Tours,"272, Avenue André Maginot , 37000 Tours",47.425151,0.699781,https://www.auchan.fr/magasins/drive/tours-nord/s-544
57,Auchan,38,Auchan Drive Voiron,Auchan_Drive_Voiron,38500 Voiron,"Boulevard Edgard Kofler , 38500 Voiron",45.359011,5.600007,https://www.auchan.fr/magasins/drive/voiron/s-6096
58,Auchan,41,Auchan Drive Blois,Auchan_Drive_Blois,41350 Vineuil,"99, Rue Pierre-gilles De Gennes , 41350 Vineuil",47.571314,1.371467,https://www.auchan.fr/magasins/drive/blois/s-876
59,Auchan,42,Auchan Drive Porte Du Forez (villars),Auchan_Drive_Porte_Du_Forez__villars_,42390 Villars,"Cc Auchan Villars Saint Etienne , 42390 Villars",45.475188,4.350668,https://www.auchan.fr/magasins/drive/porte-du-forez-villars/s-866
60,Auchan,43,Auchan Drive Le Puy,Auchan_Drive_Le_Puy,43700 Brives-charensac,"Zi De Corsac - Route De Coubon , 43700 Brives-charensac",45.051514,3.915339,https://www.auchan.fr/magasins/drive/le-puy/s-536
61,Auchan,44,Auchan Drive Nantes Basse-goulaine,Auchan_Drive_Nantes_Basse-goulaine,44115 Basse-goulaine,"Pôle Sud - 6, Rue De L'atlantique , 44115 Basse-goulaine",47.187099,-1.461612,https://www.auchan.fr/magasins/drive/nantes-basse-goulaine/s-949
62,Auchan,44,Auchan Drive Saint-herblain,Auchan_Drive_Saint-herblain,44800 Saint-herblain,"Cc Le Sillon Shopping , 44800 Saint-herblain",47.245809,-1.605914,https://www.auchan.fr/magasins/drive/saint-herblain/s-887
63,Auchan,44,Auchan Drive Saint-nazaire,Auchan_Drive_Saint-nazaire,44570 Trignac,"Cc Grand Large , 44570 Trignac",47.301439,-2.210441,https://www.auchan.fr/magasins/drive/saint-nazaire/s-993
64,Auchan,45,Auchan Drive Gien,Auchan_Drive_Gien,45500 Gien,"Cc Auchan - 3, Rue De La Fabrique , 45500 Gien",47.68805,2.62035,https://www.auchan.fr/magasins/drive/gien/s-458
65,Auchan,45,Auchan Drive Supermarché Jargeau,Auchan_Drive_Supermarche_Jargeau,45150 Jargeau,"5 Avenue Du General De Gaulle , 45150 Jargeau",47.86587,2.12472,https://www.auchan.fr/magasins/drive/supermarche-jargeau/s-6248
66,Auchan,45,Auchan Drive Olivet,Auchan_Drive_Olivet,45160 Olivet,"600, Avenue De Verdun, Rn 20 , 45160 Olivet",47.86719,1.91162,https://www.auchan.fr/magasins/drive/olivet/s-971
67,Auchan,45,Auchan Drive Orléans Supermarché,Auchan_Drive_Orleans_Supermarche,45100 Orléans,"74 Route D'olivet , 45100 Orléans",47.8826,1.90377,https://www.auchan.fr/magasins/drive/orleans-supermarche/s-6112
68,Auchan,45,Auchan Drive Relais Bricy,Auchan_Drive_Relais_Bricy,45143 Saint Jean De La Ruelle Cedex,"Bricy , 45143 Saint Jean De La Ruelle Cedex",47.98421,1.776589,https://www.auchan.fr/magasins/drive/relais-bricy/s-53331
69,Auchan,45,Auchan Drive Saint-jean De La Ruelle (orléans),Auchan_Drive_Saint-jean_De_La_Ruelle__orleans_,45140 Saint-jean-de-la-ruelle,"Avenue Pierre Mendes France , 45140 Saint-jean-de-la-ruelle",47.902477,1.859874,https://www.auchan.fr/magasins/drive/saint-jean-de-la-ruelle-orleans/s-533
70,Auchan,47,Auchan Drive Bias,Auchan_Drive_Bias,47300 Bias,"111 Avenue De Bordeaux , 47300 Bias",44.40563,0.67697,https://www.auchan.fr/magasins/drive/bias/s-300
71,Auchan,49,Auchan Drive Avrillé (angers),Auchan_Drive_Avrille__angers_,49240 Avrille,"11, Rue Des Freres Montgolfier , 49240 Avrille",47.515462,-0.614816,https://www.auchan.fr/magasins/drive/avrille-angers/s-526
72,Auchan,50,Auchan Drive Cherbourg,Auchan_Drive_Cherbourg,50470 La Glacerie,"Cc Cotentin - Ld La Banque À Genêts , 50470 La Glacerie",49.601477,-1.60203,https://www.auchan.fr/magasins/drive/cherbourg/s-532
73,Auchan,54,Auchan Drive Laxou,Auchan_Drive_Laxou,54520 Laxou,"Cc Auchan La Sapiniere , 54520 Laxou",48.691479,6.128375,https://www.auchan.fr/magasins/drive/laxou/s-875
74,Auchan,54,Auchan Drive Mont Saint-martin,Auchan_Drive_Mont_Saint-martin,54350 Mont-saint-martin,"Cc Pole Europe , 54350 Mont-saint-martin",49.513975,5.7544,https://www.auchan.fr/magasins/drive/mont-saint-martin/s-933
75,Auchan,54,Auchan Drive Tomblaine,Auchan_Drive_Tomblaine,54510 Tomblaine,"Cc Auchan Tomblaine , 54510 Tomblaine",48.684869,6.220193,https://www.auchan.fr/magasins/drive/tomblaine/s-889
76,Auchan,55,Auchan Drive Bar-le-duc,Auchan_Drive_Bar-le-duc,55000 Bar-le-duc,"N66, 1, Rte De Longeville , 55000 Bar-le-duc",48.7606,5.18119,https://www.auchan.fr/magasins/drive/bar-le-duc/s-988
77,Auchan,57,Auchan Drive Farebersviller,Auchan_Drive_Farebersviller,57450 Farebersviller,"Zone du Buehl , 57450 Farebersviller",49.111073860851114,6.854009628295898,https://www.auchan.fr/magasins/drive/farebersviller/s-707001
78,Auchan,57,Auchan Drive Semécourt (metz),Auchan_Drive_Semecourt__metz_,57280 Semecourt,"Cc Auchan Semecourt, Voie Romaine , 57280 Semecourt",49.194494,6.144791,https://www.auchan.fr/magasins/drive/semecourt-metz/s-956
79,Auchan,58,Auchan Drive Clamecy,Auchan_Drive_Clamecy,58500 Clamecy,"Route d'Orléans , 58500 Clamecy",47.45609008511723,3.509433797948558,https://www.auchan.fr/magasins/drive/clamecy/s-187001
80,Auchan,58,Auchan Drive Cosne-cours-sur-loire,Auchan_Drive_Cosne-cours-sur-loire,58200 Cosne-cours-sur-loire,"Chemin Dit du Grand Champs , 58200 Cosne-cours-sur-loire",47.38595165176883,2.9204243709597084,https://www.auchan.fr/magasins/drive/cosne-cours-sur-loire/s-188001
81,Auchan,58,Auchan Drive La Charité-sur-loire,Auchan_Drive_La_Charite-sur-loire,58400 La Charité-sur-loire,"Avenue du Maréchal Leclerc , 58400 La Charité-sur-loire",47.19038179367113,3.0132397742221566,https://www.auchan.fr/magasins/drive/la-charite-sur-loire/s-195001
82,Auchan,59,Auchan Drive Cambrai,Auchan_Drive_Cambrai,59400 Cambrai,"Avenue De Valenciennes , 59400 Cambrai",50.184758,3.253691,https://www.auchan.fr/magasins/drive/cambrai/s-886
83,Auchan,59,Auchan Drive Englos,Auchan_Drive_Englos,59320 Englos,"Cc Englos Les Geants , 59320 Englos",50.633801,2.969066,https://www.auchan.fr/magasins/drive/englos/s-924
84,Auchan,59,Auchan Drive Faches-thumesnil,Auchan_Drive_Faches-thumesnil,59155 Faches-thumesnil,"Cc Auchan Faches Thumesnil , 59155 Faches-thumesnil",50.581191,3.079546,https://www.auchan.fr/magasins/drive/faches-thumesnil/s-361
85,Auchan,59,Auchan Drive Fournes-en-weppes,Auchan_Drive_Fournes-en-weppes,59134 Fournes-en-weppes,"2150, Rue Faidherbe , 59134 Fournes-en-weppes",50.583785,2.904004,https://www.auchan.fr/magasins/drive/fournes-en-weppes/s-447
86,Auchan,59,Auchan Drive Grande Synthe (grande Synthe),Auchan_Drive_Grande_Synthe__grande_Synthe_,59760 Grande-synthe,"Route Départementale 131 , 59760 Grande-synthe",51.004014,2.286127,https://www.auchan.fr/magasins/drive/grande-synthe-grande-synthe/s-861
87,Auchan,59,Auchan Drive Leers,Auchan_Drive_Leers,59115 Leers,"1, Avenue De L'europe , 59115 Leers",50.680914,3.225292,https://www.auchan.fr/magasins/drive/leers/s-912
88,Auchan,59,Auchan Drive Supermarché Lesquin,Auchan_Drive_Supermarche_Lesquin,59810 Lesquin,"Rue Pierre Brizon , 59810 Lesquin",50.594187,3.122173,https://www.auchan.fr/magasins/drive/supermarche-lesquin/s-6006
89,Auchan,59,Auchan Drive Villeneuve D'ascq (lezennes),Auchan_Drive_Villeneuve_D_ascq__lezennes_,59650 Lezennes,"13, Rue Des Carriers , 59650 Lezennes",50.615235,3.119856,https://www.auchan.fr/magasins/drive/villeneuve-d-ascq-lezennes/s-823
90,Auchan,59,Auchan Drive Louvroil,Auchan_Drive_Louvroil,59720 Louvroil,"Route Départementale 121 , 59720 Louvroil",50.253922,3.937839,https://www.auchan.fr/magasins/drive/louvroil/s-960
91,Auchan,59,Auchan Drive Orchies,Auchan_Drive_Orchies,59310 Orchies,"Zone De L'europe , 59310 Orchies",50.47511,3.23385,https://www.auchan.fr/magasins/drive/orchies/s-6005
92,Auchan,59,Auchan Drive Petite-forêt,Auchan_Drive_Petite-foret,59494 Petite-forêt,"Route Nationale 45 , 59494 Petite-forêt",50.377725,3.479555,https://www.auchan.fr/magasins/drive/petite-foret/s-957
93,Auchan,59,Auchan Drive Roncq,Auchan_Drive_Roncq,59223 Roncq,"Cc Auchan Roncq , 59223 Roncq",50.740298,3.137755,https://www.auchan.fr/magasins/drive/roncq/s-919
94,Auchan,59,Auchan Drive Douai,Auchan_Drive_Douai,59450 Sin-le-noble,"Cc Auchan, Route Nationale , 59450 Sin-le-noble",50.34061,3.098595,https://www.auchan.fr/magasins/drive/douai/s-898
95,Auchan,59,Auchan Drive Socx (bergues),Auchan_Drive_Socx__bergues_,59380 Socx,"Zac De La Croix Rouge , 59380 Socx",50.952895,2.430438,https://www.auchan.fr/magasins/drive/socx-bergues/s-86101
96,Auchan,59,Auchan Drive Valenciennes,Auchan_Drive_Valenciennes,59300 Valenciennes,"Cc Val Sud, Avenue Du Général Horne , 59300 Valenciennes",50.348607,3.519686,https://www.auchan.fr/magasins/drive/valenciennes/s-895
97,Auchan,60,Auchan Drive Beauvais,Auchan_Drive_Beauvais,60000 Beauvais,"Cc Auchan Beauvais , 60000 Beauvais",49.408781,2.116456,https://www.auchan.fr/magasins/drive/beauvais/s-883
98,Auchan,60,Auchan Drive Compiègne,Auchan_Drive_Compiegne,60200 Compiègne,"47, Rue Notre Dame Bon Secours , 60200 Compiègne",49.414246,2.818985,https://www.auchan.fr/magasins/drive/compiegne/s-6057
99,Auchan,60,Auchan Drive Meru,Auchan_Drive_Meru,60110 Méru,"Cc Les Marquises, Rue Marcel Coquet , 60110 Méru",49.22377,2.13628,https://www.auchan.fr/magasins/drive/meru/s-453
100,Auchan,60,Auchan Drive Nogent-sur-oise,Auchan_Drive_Nogent-sur-oise,60180 Nogent-sur-oise,"Rue Du Marais Sec , 60180 Nogent-sur-oise",49.276761,2.487961,https://www.auchan.fr/magasins/drive/nogent-sur-oise/s-877
101,Auchan,60,Auchan Drive Noyon,Auchan_Drive_Noyon,60400 Noyon,"Cc Auchan Noyon, Zac Du Mont Renaud , 60400 Noyon",49.569877,2.97413,https://www.auchan.fr/magasins/drive/noyon/s-524
102,Auchan,95,Auchan Drive Sarcelles,Auchan_Drive_Sarcelles,95200 Sarcelles,"20, Avenue De La Division Leclerc , 95200 Sarcelles",48.9859589,2.3726896,https://www.auchan.fr/magasins/drive/sarcelles/s-983
103,Auchan,62,Auchan Drive Autingues,Auchan_Drive_Autingues,62610 Autingues,"Za Les Moulins , 62610 Autingues",50.851776,1.986197,https://www.auchan.fr/magasins/drive/autingues/s-6051
104,Auchan,62,Auchan Drive Saint-omer,Auchan_Drive_Saint-omer,62575 Blendecques,"Rue Cassini , 62575 Blendecques",50.73323,2.2694,https://www.auchan.fr/magasins/drive/saint-omer/s-937
105,Auchan,62,Auchan Drive Béthune,Auchan_Drive_Bethune,62400 Béthune,"Rue Pierre De Coubertin , 62400 Béthune",50.523113,2.631397,https://www.auchan.fr/magasins/drive/bethune/s-970
106,Auchan,62,Auchan Drive Calais Beaumarais,Auchan_Drive_Calais_Beaumarais,62100 Calais,"1950 avenue Toumaniantz , 62100 Calais",50.955573,1.903092,https://www.auchan.fr/magasins/drive/calais-beaumarais/s-98901
107,Auchan,62,Auchan Drive Calais Salengro,Auchan_Drive_Calais_Salengro,62100 Calais,"Cc Auchan Calais Les 2 Caps , 62100 Calais",50.939987,1.807766,https://www.auchan.fr/magasins/drive/calais-salengro/s-989
108,Auchan,62,Auchan Drive Arras,Auchan_Drive_Arras,62161 Duisans,"Parc Des Bonettes, Rue Willy Brandt , 62161 Duisans",50.304464,2.72803,https://www.auchan.fr/magasins/drive/arras/s-882
109,Auchan,62,Auchan Drive Noyelles-godault,Auchan_Drive_Noyelles-godault,62950 Noyelles-godault,"Cc Auchan Noyelles-godault , 62950 Noyelles-godault",50.409051,2.98134,https://www.auchan.fr/magasins/drive/noyelles-godault/s-972
110,Auchan,62,Auchan Drive Noyelles-lès-vermelles,Auchan_Drive_Noyelles-les-vermelles,62980 Noyelles-lès-vermelles,"Route Nationale 43 , 62980 Noyelles-lès-vermelles",50.482497,2.726862,https://www.auchan.fr/magasins/drive/noyelles-les-vermelles/s-6104
111,Auchan,62,Auchan Drive Boulogne-sur-mer,Auchan_Drive_Boulogne-sur-mer,62280 Saint-martin-boulogne,"Cc Auchan Cote D'opale , 62280 Saint-martin-boulogne",50.734011,1.675243,https://www.auchan.fr/magasins/drive/boulogne-sur-mer/s-936
112,Auchan,63,Auchan Drive Plein Sud Aubière,Auchan_Drive_Plein_Sud_Aubiere,63170 Aubière,"Avenue Malmouche , 63170 Aubière",45.753167,3.131028,https://www.auchan.fr/magasins/drive/plein-sud-aubiere/s-870
113,Auchan,63,Auchan Drive Beaumont 2,Auchan_Drive_Beaumont_2,63110 Beaumont,"Zac Champ Madame , 63110 Beaumont",45.745472,3.091238,https://www.auchan.fr/magasins/drive/beaumont-2/s-6065
114,Auchan,63,Auchan Drive Besse,Auchan_Drive_Besse,63610 Besse-et-saint-anastaise,"Route De Compains , 63610 Besse-et-saint-anastaise",45.508746,2.937231,https://www.auchan.fr/magasins/drive/besse/s-6066
115,Auchan,33,Auchan Drive Counord,Auchan_Drive_Counord,33300 Bordeaux,"42-50 Avenue Emile Counord , 33300 Bordeaux",44.85714,-0.57434,https://www.auchan.fr/magasins/drive/counord/s-6015
116,Auchan,63,Auchan Drive Ladoux,Auchan_Drive_Ladoux,63118 Cebazat,"9 rue Bleue , 63118 Cebazat",45.84289,3.119853,https://www.auchan.fr/magasins/drive/ladoux/s-87011
117,Auchan,63,Auchan Drive Blatin - Clermont,Auchan_Drive_Blatin_-_Clermont,63000 Clermont-ferrand,"57, Boulevard Côte Blatin , 63000 Clermont-ferrand",45.768425,3.0901,https://www.auchan.fr/magasins/drive/blatin-clermont/s-6068
118,Auchan,63,Auchan Drive Clermont-ferrand Clémentel,Auchan_Drive_Clermont-ferrand_Clementel,63100 Clermont-ferrand,"Cc Croix Neyrat , 63100 Clermont-ferrand",45.81263761880062,3.1085035647290478,https://www.auchan.fr/magasins/drive/clermont-ferrand-clementel/s-968
119,Auchan,63,Auchan Drive Cebazat,Auchan_Drive_Cebazat,63118 Cébazat,"Route De Châteaugay , 63118 Cébazat",45.833977,3.096978,https://www.auchan.fr/magasins/drive/cebazat/s-6043
120,Auchan,63,Auchan Drive La Bourboule,Auchan_Drive_La_Bourboule,63150 La Bourboule,"815, Boulevard Des Vernières , 63150 La Bourboule",45.590941,2.757855,https://www.auchan.fr/magasins/drive/la-bourboule/s-6069
121,Auchan,64,Auchan Drive Pau,Auchan_Drive_Pau,64320 Bizanos,"Boulevard De L'aviation , 64320 Bizanos",43.308473,-0.327916,https://www.auchan.fr/magasins/drive/pau/s-891
122,Auchan,65,Auchan Drive Tarbes,Auchan_Drive_Tarbes,65000 Tarbes,"14, Route De Pau , 65000 Tarbes",43.237873,0.045287,https://www.auchan.fr/magasins/drive/tarbes/s-540
123,Auchan,66,Auchan Drive Perpignan,Auchan_Drive_Perpignan,66000 Perpignan,"Cc Porte D'espagne , 66000 Perpignan",42.668048,2.882997,https://www.auchan.fr/magasins/drive/perpignan/s-953
124,Auchan,67,Auchan Drive Illkirch,Auchan_Drive_Illkirch,67400 Illkirch-graffenstaden,"6, Route De Strasbourg , 67400 Illkirch-graffenstaden",48.542555,7.739774,https://www.auchan.fr/magasins/drive/illkirch/s-545
125,Auchan,67,Auchan Drive Marlenheim,Auchan_Drive_Marlenheim,67520 Marlenheim,"Zc Ellipse - 1 Rue Griesmatt , 67520 Marlenheim",48.616732,7.504634,https://www.auchan.fr/magasins/drive/marlenheim/s-6127
127,Auchan,67,Auchan Drive Obernai,Auchan_Drive_Obernai,67210 Obernai,"14, Rue Du General Leclerc , 67210 Obernai",48.464844,7.48968,https://www.auchan.fr/magasins/drive/obernai/s-6132
128,Auchan,67,Auchan Drive Haguenau (schweighouse),Auchan_Drive_Haguenau__schweighouse_,67590 Schweighouse-sur-moder,"7, Rue De Nierderbronn , 67590 Schweighouse-sur-moder",48.831348,7.74313,https://www.auchan.fr/magasins/drive/haguenau-schweighouse/s-897
129,Auchan,67,Auchan Drive Hautepierre (strasbourg),Auchan_Drive_Hautepierre__strasbourg_,67200 Strasbourg,"Cc Hautepierre , 67200 Strasbourg",48.590433,7.697875,https://www.auchan.fr/magasins/drive/hautepierre-strasbourg/s-978
130,Auchan,68,Auchan Drive Wintzenheim,Auchan_Drive_Wintzenheim,68920 Wintzenheim,"1 Faubourg Des Vosges , 68920 Wintzenheim",48.070947,7.298409,https://www.auchan.fr/magasins/drive/wintzenheim/s-6141
131,Auchan,69,Auchan Drive Drive Hypermarche Caluire,Auchan_Drive_Drive_Hypermarche_Caluire,69300 Caluire-et-cuire,"Cc Caluire 2 , 69300 Caluire-et-cuire",45.807033,4.858189,https://www.auchan.fr/magasins/drive/drive-hypermarche-caluire/s-527
132,Auchan,69,Auchan Drive Supermarché Caluire,Auchan_Drive_Supermarche_Caluire,69300 Caluire-et-cuire,"1, Place Du Maréchal Foch , 69300 Caluire-et-cuire",45.79719,4.85138,https://www.auchan.fr/magasins/drive/supermarche-caluire/s-6070
133,Auchan,69,Auchan Drive Saint-genis (chapônost),Auchan_Drive_Saint-genis__chaponost_,69630 Chaponost,"78, Route De Brignais - D342 , 69630 Chaponost",45.698731,4.766401,https://www.auchan.fr/magasins/drive/saint-genis-chaponost/s-591
134,Auchan,69,Auchan Drive Dardilly,Auchan_Drive_Dardilly,69570 Dardilly,"Cc Porte De Lyon , 69570 Dardilly",45.819569,4.76915,https://www.auchan.fr/magasins/drive/dardilly/s-867
135,Auchan,69,Auchan Drive Lyon Saint-priest,Auchan_Drive_Lyon_Saint-priest,69800 Saint-priest,"Cc Porte Des Alpes , 69800 Saint-priest",45.723229,4.925534,https://www.auchan.fr/magasins/drive/lyon-saint-priest/s-929
136,Auchan,69,Auchan Drive Villefranche,Auchan_Drive_Villefranche,69400 Villefranche-sur-saône,"420 Rue Philippe Héron , 69400 Villefranche-sur-saône",45.9897924,4.7088062,https://www.auchan.fr/magasins/drive/villefranche/s-6095
137,Auchan,70,Auchan Drive Luxeuil,Auchan_Drive_Luxeuil,70300 Luxeuil-les-bains,"Le Mont Valot - Route Nationale 57 , 70300 Luxeuil-les-bains",47.81978,6.3889,https://www.auchan.fr/magasins/drive/luxeuil/s-459
138,Auchan,71,Auchan Drive Gueugnon,Auchan_Drive_Gueugnon,71130 Gueugnon,"1 rue Pierre Bérégovoy , 71130 Gueugnon",46.590837176564605,4.067529282573896,https://www.auchan.fr/magasins/drive/gueugnon/s-182001
139,Auchan,71,Auchan Drive Macon,Auchan_Drive_Macon,71000 Macon,"Route Nationale 6 , 71000 Macon",46.324883,4.840164,https://www.auchan.fr/magasins/drive/macon/s-893
140,Auchan,71,Auchan Drive Sennecey-le-grand,Auchan_Drive_Sennecey-le-grand,71240 Sennecey-le-grand,"Chemin Ferré , 71240 Sennecey-le-grand",46.63145,4.87609,https://www.auchan.fr/magasins/drive/sennecey-le-grand/s-205001
141,Auchan,71,Auchan Drive Tournus,Auchan_Drive_Tournus,71700 Tournus,"8, Rue De Saône , 71700 Tournus",46.559137,4.915695,https://www.auchan.fr/magasins/drive/tournus/s-6094
142,Auchan,72,Auchan Drive Relais Auvours,Auchan_Drive_Relais_Auvours,72650 Saint Saturnin,"Rue Jean de Vignolles , 72650 Saint Saturnin",48.048631,0.17196,https://www.auchan.fr/magasins/drive/relais-auvours/s-94831
143,Auchan,72,Auchan Drive Le Mans,Auchan_Drive_Le_Mans,72650 Saint-saturnin,"Zac Du Moulin Aux Moines , 72650 Saint-saturnin",48.048631,0.17196,https://www.auchan.fr/magasins/drive/le-mans/s-948
144,Auchan,74,Auchan Drive Epagny (annecy),Auchan_Drive_Epagny__annecy_,74330 Épagny,"Cc Grand Epagny , 74330 Épagny",45.938236,6.071599,https://www.auchan.fr/magasins/drive/epagny-annecy/s-925
145,Auchan,75,Auchan Drive Buttes Chaumont - Paris,Auchan_Drive_Buttes_Chaumont_-_Paris,75019 Paris,"44, Rue Des Alouettes , 75019 Paris",48.878629,2.385667,https://www.auchan.fr/magasins/drive/buttes-chaumont-paris/s-6152
146,Auchan,76,Auchan Drive Dieppe,Auchan_Drive_Dieppe,76200 Dieppe,"Cc Belvedere, Avenue Des Canadiens , 76200 Dieppe",49.908317,1.078033,https://www.auchan.fr/magasins/drive/dieppe/s-894
147,Auchan,76,Auchan Drive Le Havre,Auchan_Drive_Le_Havre,76620 Le Havre,"Rue Gustave Serrurier , 76620 Le Havre",49.525949,0.108159,https://www.auchan.fr/magasins/drive/le-havre/s-979
148,Auchan,76,Auchan Drive Luneray,Auchan_Drive_Luneray,76810 Luneray,"Rue De La République , 76810 Luneray",49.83236,0.91722,https://www.auchan.fr/magasins/drive/luneray/s-6225
149,Auchan,76,Auchan Drive Montivilliers,Auchan_Drive_Montivilliers,76290 Montivilliers,"Avenue De La Belle Etoile , 76290 Montivilliers",49.532256,0.188924,https://www.auchan.fr/magasins/drive/montivilliers/s-966
150,Auchan,76,Auchan Drive Notre-dame-de-gravenchon,Auchan_Drive_Notre-dame-de-gravenchon,76330 Notre-dame-de-gravenchon,"Rue René Coty , 76330 Notre-dame-de-gravenchon",49.488408,0.569558,https://www.auchan.fr/magasins/drive/notre-dame-de-gravenchon/s-6229
151,Auchan,77,Auchan Drive Melun,Auchan_Drive_Melun,77240 Cesson,"Cc Boissenart , 77240 Cesson",48.584017,2.601914,https://www.auchan.fr/magasins/drive/melun/s-932
152,Auchan,77,Auchan Drive Meaux,Auchan_Drive_Meaux,77124 Chauconin-neufmontiers,"Cc Les Saisons De Meaux , 77124 Chauconin-neufmontiers",48.961968,2.861705,https://www.auchan.fr/magasins/drive/meaux/s-598
153,Auchan,77,Auchan Drive Saint-fargeau,Auchan_Drive_Saint-fargeau,77310 Saint-fargeau-ponthierry,"46 Avenue De Fontainebleau , 77310 Saint-fargeau-ponthierry",48.53006,2.54485,https://www.auchan.fr/magasins/drive/saint-fargeau/s-6027
154,Auchan,77,Auchan Drive Serris,Auchan_Drive_Serris,77700 Serris,"Rue Charles Linne , 77700 Serris",48.837972,2.782605,https://www.auchan.fr/magasins/drive/serris/s-959
156,Auchan,77,Auchan Drive Vaux Le Pénil,Auchan_Drive_Vaux_Le_Penil,77000 Vaux-le-pénil,"Route De Nangis , 77000 Vaux-le-pénil",48.541273,2.682549,https://www.auchan.fr/magasins/drive/vaux-le-penil/s-592
157,Auchan,78,Auchan Drive Mantes,Auchan_Drive_Mantes,78200 Buchelay,"Cc Portes De Normandie , 78200 Buchelay",48.980699,1.690623,https://www.auchan.fr/magasins/drive/mantes/s-931
158,Auchan,78,Auchan Drive Coignières,Auchan_Drive_Coignieres,78310 Coignières,"4, Rue Marie Curie , 78310 Coignières",48.757476,1.929084,https://www.auchan.fr/magasins/drive/coignieres/s-868
159,Auchan,78,Auchan Drive Conflans Ste Honorine,Auchan_Drive_Conflans_Ste_Honorine,78700 Conflans-sainte-honorine,"109 Rue De L'ambassadeur , 78700 Conflans-sainte-honorine",49.009587,2.104311,https://www.auchan.fr/magasins/drive/conflans-ste-honorine/s-6156
160,Auchan,78,Auchan Drive Houilles,Auchan_Drive_Houilles,78800 Houilles,"108, Boulevard Emile Zola , 78800 Houilles",48.924057,2.204136,https://www.auchan.fr/magasins/drive/houilles/s-6162
161,Auchan,78,Auchan Drive Le Perray-en-yvelines,Auchan_Drive_Le_Perray-en-yvelines,78610 Le Perray-en-yvelines,"57 Rue De Chartres , 78610 Le Perray-en-yvelines",48.684572,1.8461,https://www.auchan.fr/magasins/drive/le-perray-en-yvelines/s-6168
162,Auchan,78,Auchan Drive Supermarché Orgerus,Auchan_Drive_Supermarche_Orgerus,78910 Orgerus,"Route De Behoust , 78910 Orgerus",48.8244,1.74963,https://www.auchan.fr/magasins/drive/supermarche-orgerus/s-6181
163,Auchan,78,Auchan Drive Plaisir,Auchan_Drive_Plaisir,78370 Plaisir,"Cc Grand Plaisir , 78370 Plaisir",48.82805,1.962985,https://www.auchan.fr/magasins/drive/plaisir/s-918
164,Auchan,78,Auchan Drive Sartrouville,Auchan_Drive_Sartrouville,78500 Sartrouville,"80, Avenue Maurice Berteaux , 78500 Sartrouville",48.94075,2.164953,https://www.auchan.fr/magasins/drive/sartrouville/s-6193
165,Auchan,78,Auchan Drive Meulan,Auchan_Drive_Meulan,78250 Tessancourt-sur-aubette,"Route Départementale 28 , 78250 Tessancourt-sur-aubette",49.01198,1.908624,https://www.auchan.fr/magasins/drive/meulan/s-6022
166,Auchan,77,Auchan Drive Thomery,Auchan_Drive_Thomery,77810 Thomery,"Chemin Des Prés , 77810 Thomery",48.4061,2.79087,https://www.auchan.fr/magasins/drive/thomery/s-6196
167,Auchan,78,Auchan Drive Trappes,Auchan_Drive_Trappes,78190 Trappes,"Rue Louis Auguste Blanqui , 78190 Trappes",48.768198,1.978801,https://www.auchan.fr/magasins/drive/trappes/s-547
168,Auchan,78,Auchan Drive Supermarché Trappes,Auchan_Drive_Supermarche_Trappes,78190 Trappes,"1 Avenue Urbain Le Verrier , 78190 Trappes",48.7889192,1.9744854,https://www.auchan.fr/magasins/drive/supermarche-trappes/s-6198
169,Auchan,78,Auchan Drive Verneuil 2,Auchan_Drive_Verneuil_2,78480 Verneuil-sur-seine,"Cc De Maupas - Rue Des Rosiers , 78480 Verneuil-sur-seine",48.9863054,1.9694478,https://www.auchan.fr/magasins/drive/verneuil-2/s-6201
170,Auchan,78,Auchan Drive Vélizy,Auchan_Drive_Velizy,78140 Vélizy-villacoublay,"Cc Velizy 2 - 2, Avenue De L'europe , 78140 Vélizy-villacoublay",48.781389,2.220556,https://www.auchan.fr/magasins/drive/velizy/s-935
171,Auchan,80,Auchan Drive Amiens,Auchan_Drive_Amiens,80480 Dury,"Cc Amiens Sud - Route De Paris , 80480 Dury",49.863191,2.277346,https://www.auchan.fr/magasins/drive/amiens/s-980
172,Auchan,80,Auchan Drive Mers-les-bains,Auchan_Drive_Mers-les-bains,80350 Mers-les-bains,"Fond De Froideville - Rn 15 , 80350 Mers-les-bains",50.06166,1.40925,https://www.auchan.fr/magasins/drive/mers-les-bains/s-449
173,Auchan,80,Auchan Drive Nesle,Auchan_Drive_Nesle,80190 Nesle,"Route De Rouy , 80190 Nesle",49.7602,2.91589,https://www.auchan.fr/magasins/drive/nesle/s-6228
174,Auchan,80,Auchan Drive Villers Bretonneux,Auchan_Drive_Villers_Bretonneux,80800 Villers-bretonneux,"Rue De Demuin , 80800 Villers-bretonneux",49.857782,2.52566,https://www.auchan.fr/magasins/drive/villers-bretonneux/s-6102
175,Auchan,81,Auchan Drive Castres,Auchan_Drive_Castres,81100 Castres,"7, Rue Jean Chaptal , 81100 Castres",43.589841,2.188865,https://www.auchan.fr/magasins/drive/castres/s-531
176,Auchan,82,Auchan Drive Montauban,Auchan_Drive_Montauban,82000 Montauban,"Cc Les Trois Rivieres , 82000 Montauban",44.030809,1.368484,https://www.auchan.fr/magasins/drive/montauban/s-884
177,Auchan,83,Auchan Drive La Seyne-sur-mer (toulon),Auchan_Drive_La_Seyne-sur-mer__toulon_,83500 La Seyne-sur-mer,"851, Boulevard De L'europe , 83500 La Seyne-sur-mer",43.11379,5.858084,https://www.auchan.fr/magasins/drive/la-seyne-sur-mer-toulon/s-538
178,Auchan,84,Auchan Drive Avignon,Auchan_Drive_Avignon,84000 Avignon,"1741, Route De Marseille , 84000 Avignon",43.922194,4.862008,https://www.auchan.fr/magasins/drive/avignon/s-864
179,Auchan,84,Auchan Drive Cavaillon,Auchan_Drive_Cavaillon,84300 Cavaillon,"Cc Le Ravaou , 84300 Cavaillon",43.83608,5.0511,https://www.auchan.fr/magasins/drive/cavaillon/s-456
180,Auchan,84,Auchan Drive Le Pontet,Auchan_Drive_Le_Pontet,84130 Le Pontet,"Cc Avignon Nord , 84130 Le Pontet",43.982687,4.878316,https://www.auchan.fr/magasins/drive/le-pontet/s-952
181,Auchan,84,Auchan Drive Supermarché Le Pontet Realpanier,Auchan_Drive_Supermarche_Le_Pontet_Realpanier,84130 Le Pontet,"Rond-point Réal Panier , 84130 Le Pontet",43.951535,4.85976,https://www.auchan.fr/magasins/drive/supermarche-le-pontet-realpanier/s-6211
182,Auchan,86,Auchan Drive Chasseneuil-du-poitou,Auchan_Drive_Chasseneuil-du-poitou,86360 Chasseneuil-du-poitou,"Cc Auchan Les Portes Du Futur , 86360 Chasseneuil-du-poitou",46.666991,0.372076,https://www.auchan.fr/magasins/drive/chasseneuil-du-poitou/s-862
183,Auchan,86,Auchan Drive Châtellerault,Auchan_Drive_Chatellerault,86100 Châtellerault,"Cc Auchan , 86100 Châtellerault",46.79799,0.53152,https://www.auchan.fr/magasins/drive/chatellerault/s-451
184,Auchan,86,Auchan Drive Poitiers,Auchan_Drive_Poitiers,86240 Croutelle,"Route De La Saulaie , 86240 Croutelle",46.547528,0.298026,https://www.auchan.fr/magasins/drive/poitiers/s-939
185,Auchan,88,Auchan Drive Golbey,Auchan_Drive_Golbey,88190 Golbey,"Rue Des Forges , 88190 Golbey",48.17832,6.42715,https://www.auchan.fr/magasins/drive/golbey/s-6230
186,Auchan,88,Auchan Drive Épinal,Auchan_Drive_Epinal,88000 Épinal,"Avenue De Saint-dié , 88000 Épinal",48.18507,6.46834,https://www.auchan.fr/magasins/drive/epinal/s-6231
187,Auchan,89,Auchan Drive Avallon,Auchan_Drive_Avallon,89200 Avallon,"Rue du Général Leclerc, Route de Tonnerre , 89200 Avallon",47.49852113075087,3.906108991678084,https://www.auchan.fr/magasins/drive/avallon/s-185001
188,Auchan,89,Auchan Drive Sens,Auchan_Drive_Sens,89100 Sens,"Lieu-dit Chambertrand, Centre commercial Porte de Bourgogne , 89100 Sens",48.17178136686853,3.2926322084208604,https://www.auchan.fr/magasins/drive/sens/s-193001
189,Auchan,89,Auchan Drive Tonnerre,Auchan_Drive_Tonnerre,89700 Tonnerre,"Route de Dijon , 89700 Tonnerre",47.85316117875389,3.9863987998128914,https://www.auchan.fr/magasins/drive/tonnerre/s-186001
190,Auchan,90,Auchan Drive Belfort,Auchan_Drive_Belfort,90160 Bessoncourt,"Cd 419 - Lieu-dit Blozier , 90160 Bessoncourt",47.640771,6.913424,https://www.auchan.fr/magasins/drive/belfort/s-534
191,Auchan,91,Auchan Drive Brétigny,Auchan_Drive_Bretigny,91220 Brétigny-sur-orge,"Cc Maison Neuve , 91220 Brétigny-sur-orge",48.585522,2.300863,https://www.auchan.fr/magasins/drive/bretigny/s-930
192,Auchan,91,Auchan Drive Montgeron,Auchan_Drive_Montgeron,91230 Montgeron,"Rue Mercure , 91230 Montgeron",48.715148,2.438493,https://www.auchan.fr/magasins/drive/montgeron/s-981
193,Auchan,91,Auchan Drive Cité De L'innovation,Auchan_Drive_Cite_De_L_innovation,91620 Nozay,"Centre de Villarceaux - Route de Villejust , 91620 Nozay",48.668193,2.236543,https://www.auchan.fr/magasins/drive/cite-de-l-innovation/s-97711
194,Auchan,91,Auchan Drive Saint-germain-les-corbeil,Auchan_Drive_Saint-germain-les-corbeil,91250 Saint-germain-lès-corbeil,"Cc Croix Verte - Place De L'europe , 91250 Saint-germain-lès-corbeil",48.6208,2.49154,https://www.auchan.fr/magasins/drive/saint-germain-les-corbeil/s-6191
195,Auchan,91,Auchan Drive Villebon,Auchan_Drive_Villebon,91140 Villebon-sur-yvette,"Cc Villebon 2 - Chemin De Briis , 91140 Villebon-sur-yvette",48.703679,2.253785,https://www.auchan.fr/magasins/drive/villebon/s-977
196,Auchan,92,Auchan Drive Antony Pascal,Auchan_Drive_Antony_Pascal,92160 Antony,"134 Rue Pascal , 92160 Antony",48.740499,2.314116,https://www.auchan.fr/magasins/drive/antony-pascal/s-6143
197,Auchan,92,Auchan Drive La Garenne-colombes,Auchan_Drive_La_Garenne-colombes,92250 La Garenne-colombes,"49-51 Avenue Du Général De Gaulle , 92250 La Garenne-colombes",48.9106,2.25481,https://www.auchan.fr/magasins/drive/la-garenne-colombes/s-6166
198,Auchan,93,Auchan Drive Roissy Aéroville (paris),Auchan_Drive_Roissy_Aeroville__paris_,93290 Tremblay-en-france,"30, Rue Des Buissons , 93290 Tremblay-en-france",48.993059,2.519603,https://www.auchan.fr/magasins/drive/roissy-aeroville-paris/s-542
199,Auchan,93,Auchan Drive Villepinte,Auchan_Drive_Villepinte,93420 Villepinte,"Boulevard Robert Ballanger , 93420 Villepinte",48.9600037,2.5548121,https://www.auchan.fr/magasins/drive/villepinte/s-6202
200,Auchan,94,Auchan Drive Le Plessis-trevise,Auchan_Drive_Le_Plessis-trevise,94420 Le Plessis-trévise,"28-30 Avenue Chéret , 94420 Le Plessis-trévise",48.805519,2.586001,https://www.auchan.fr/magasins/drive/le-plessis-trevise/s-6259
201,Auchan,94,Auchan Drive Vitry-sur-seine,Auchan_Drive_Vitry-sur-seine,94400 Vitry-sur-seine,"Cc Vitry Gagarine , 94400 Vitry-sur-seine",48.785391,2.391348,https://www.auchan.fr/magasins/drive/vitry-sur-seine/s-6203
202,Auchan,95,Auchan Drive Arnouville,Auchan_Drive_Arnouville,95400 Arnouville,"59, Avenue Charles Vaillant , 95400 Arnouville",48.985091,2.413143,https://www.auchan.fr/magasins/drive/arnouville/s-6144
203,Auchan,95,Auchan Drive Cergy,Auchan_Drive_Cergy,95000 Cergy,"Cc Les 3 Fontaines , 95000 Cergy",49.037829,2.078867,https://www.auchan.fr/magasins/drive/cergy/s-584
204,Auchan,45,Auchan Drive Centrale Nucléaire De Dampierre,Auchan_Drive_Centrale_Nucleaire_De_Dampierre,45570 Dampierre En Burly,"EDF CNPE Dampierre Rue Nationale , 45570 Dampierre En Burly",47.724472,2.49763,https://www.auchan.fr/magasins/drive/centrale-nucleaire-de-dampierre/s-6025
205,Auchan,95,Auchan Drive Osny,Auchan_Drive_Osny,95520 Osny,"Cc De L'oseraie - Cd 915 , 95520 Osny",49.077886,2.079885,https://www.auchan.fr/magasins/drive/osny/s-878
206,Auchan,95,Auchan Drive Taverny,Auchan_Drive_Taverny,95150 Taverny,"Cc Les Portes De Taverny , 95150 Taverny",49.014286,2.221137,https://www.auchan.fr/magasins/drive/taverny/s-879